{"datasource.js":"window.topPopulation = [\r\n    {\r\n        'name': 'Tokyo',\r\n        'latitude': 35.6894875,\r\n        'longitude': 139.6917064,\r\n        'population': 33200000,\r\n        'Country': 'Japan'\r\n    },\r\n    {\r\n        'name': 'New York',\r\n        'latitude': 40.7127753,\r\n        'longitude': -74.0059728,\r\n        'population': 17800000,\r\n        'Country': 'United States'\r\n    },\r\n    {\r\n        'name': 'Sao Paulo',\r\n        'latitude': -23.5505199,\r\n        'longitude': -46.6333094,\r\n        'population': 17700000,\r\n        'Country': 'Brazil'\r\n    },\r\n    {\r\n        'name': 'Seoul/Incheon',\r\n        'latitude': 37.566535,\r\n        'longitude': 126.9779692,\r\n        'population': 17500000,\r\n        'Country': 'South Korea',\r\n    },\r\n    {\r\n        'name': 'Mexico City',\r\n        'latitude': 19.2464696,\r\n        'longitude': -99.1013498,\r\n        'population': 17400000,\r\n        'Country': 'Mexico'\r\n    },\r\n    {\r\n        'name': 'Osaka/Kobe/Kyoto',\r\n        'latitude': 35.0212466,\r\n        'longitude': 135.7555968,\r\n        'population': 16425000,\r\n        'Country': 'Japan'\r\n    },\r\n    {\r\n        'name': 'Manila',\r\n        'latitude': 14.5995124,\r\n        'longitude': 120.9842195,\r\n        'population': 14750000,\r\n        'Country': 'Philippines'\r\n    },\r\n    {\r\n        'name': 'Mumbai',\r\n        'latitude': 19.0759837,\r\n        'longitude': 72.8776559,\r\n        'population': 14350000,\r\n        'Country': 'India'\r\n    },\r\n    {\r\n        'name': 'Delhi',\r\n        'latitude': 28.6139391,\r\n        'longitude': 77.2090212,\r\n        'population': 14300000,\r\n        'Country': 'India'\r\n    },\r\n    {\r\n        'name': 'Jakarta',\r\n        'latitude': -6.17511,\r\n        'longitude': 106.8650395,\r\n        'population': 14250000,\r\n        'Country': 'Indonesia'\r\n    },\r\n    {\r\n        'name': 'Lagos',\r\n        'latitude': 6.5243793,\r\n        'longitude': 3.3792057,\r\n        'population': 13400000,\r\n        'Country': 'Nigeria'\r\n    },\r\n    {\r\n        'name': 'Kolkata',\r\n        'latitude': 22.572646,\r\n        'longitude': 88.363895,\r\n        'population': 12700000,\r\n        'Country': 'India'\r\n    },\r\n    {\r\n        'name': 'Cairo',\r\n        'latitude': 30.0444196,\r\n        'longitude': 31.2357116,\r\n        'population': 12200000,\r\n        'Country': 'Egypt'\r\n    },\r\n    {\r\n        'name': 'Los Angeles',\r\n        'latitude': 34.0522265,\r\n        'longitude': -118.2436596,\r\n        'population': 11789000,\r\n        'Country': 'United States'\r\n    },\r\n    {\r\n        'name': 'Buenos Aires',\r\n        'latitude': -34.6036844,\r\n        'longitude': -58.3815591,\r\n        'population': 11200000,\r\n        'Country': 'Argentina'\r\n    },\r\n    {\r\n        'name': 'Rio de Janeiro',\r\n        'latitude': -22.9068467,\r\n        'longitude': -43.1728965,\r\n        'population': 10800000,\r\n        'Country': 'Brazil'\r\n    },\r\n    {\r\n        'name': 'Moscow',\r\n        'latitude': 55.755826,\r\n        'longitude': 37.6173,\r\n        'population': 10500000,\r\n        'Country': 'Russia'\r\n    },\r\n    {\r\n        'name': 'Shanghai',\r\n        'latitude': 31.2303904,\r\n        'longitude': 121.4737021,\r\n        'population': 10000000,\r\n        'Country': 'China'\r\n    },\r\n    {\r\n        'name': 'Karachi',\r\n        'latitude': 25.0700428,\r\n        'longitude': 67.2847875,\r\n        'population': 9800000,\r\n        'Country': 'Pakistan'\r\n    },\r\n    {\r\n        'name': 'Paris',\r\n        'latitude': 48.856614,\r\n        'longitude': 2.3522219,\r\n        'population': 9645000,\r\n        'Country': 'France'\r\n    },\r\n    {\r\n        'name': 'Istanbul',\r\n        'latitude': 41.0082376,\r\n        'longitude': 28.9783589,\r\n        'population': 9000000,\r\n        'Country': 'Istanbul'\r\n    },\r\n    {\r\n        'name': 'Nagoya',\r\n        'latitude': 35.1814464,\r\n        'longitude': 136.906398,\r\n        'population': 9000000,\r\n        'Country': 'Japan'\r\n    },\r\n    {\r\n        'name': 'Beijing',\r\n        'latitude': 39.9041999,\r\n        'longitude': 116.4073963,\r\n        'population': 8614000,\r\n        'Country': 'China'\r\n    },\r\n    {\r\n        'name': 'Chicago',\r\n        'latitude': 41.8781136,\r\n        'longitude': -87.6297982,\r\n        'population': 8308000,\r\n        'Country': 'United States'\r\n    },\r\n    {\r\n        'name': 'London',\r\n        'latitude': 51.5073509,\r\n        'longitude': -0.1277583,\r\n        'population': 8278000,\r\n        'Country': 'United Kingdom'\r\n    },\r\n];\r\n\r\nwindow.internetUsers = [\r\n    { 'rank': 1, 'name': 'China', 'value': bubblesize(746662194), 'color': '#7F38A0', 'population': 746662194},\r\n    { 'rank': 2, 'name': 'India', 'value': bubblesize(391292635), 'color': '#7F38A0 ', 'population': 391292635 },\r\n    { 'rank': 3, 'name': 'United States', 'value': bubblesize(245436423), 'color': '#99295D ','population': 245436423 },\r\n    { 'rank': 4, 'name': 'Brazil', 'value': bubblesize(123927230), 'color': '#364A98','population': 123927230 },\r\n    { 'rank': 5, 'name': 'Japan', 'value': bubblesize(117528631), 'color': '#7F38A0 ','population': 117528631 },\r\n    { 'rank': 6, 'name': 'Russia', 'value': bubblesize(110003284), 'color': '#2E769F','population': 110003284 },\r\n    { 'rank': 7, 'name': 'Mexico', 'value': bubblesize(75937568), 'color': '#99295D ','population': 75937568 },\r\n    { 'rank': 8, 'name': 'Germany', 'value': bubblesize(73436503), 'color': '#2E769F', 'population': 73436503 },\r\n    { 'rank': 9, 'name': 'Indonesia', 'value': bubblesize(66244991), 'color': '#7F38A0 ', 'population': 66244991 },\r\n    { 'rank': 10, 'name': 'United Kingdom', 'value': bubblesize(62354410), 'color': '#2E769F', 'population': 62354410 },\r\n    { 'rank': 11, 'name': 'Philippines', 'value': bubblesize(57342723), 'color': '#7F38A0 ', 'population': 57342723 },\r\n    { 'rank': 12, 'name': 'France', 'value': bubblesize(55413854), 'color': '#2E769F', 'population': 55413854 },\r\n    { 'rank': 13, 'name': 'Nigeria', 'value': bubblesize(47743541), 'color': '#816F28', 'population': 47743541 },\r\n    { 'rank': 14, 'name': 'South Africa', 'value': bubblesize(47094267), 'color': '#816F28', 'population': 47094267 },\r\n    { 'rank': 15, 'name': 'Turkey', 'value': bubblesize(46395500), 'color': '#2E769F', 'population': 46395500 },\r\n    { 'rank': 16, 'name': 'Vietnam', 'value': bubblesize(43974618), 'color': '#7F38A0 ', 'population': 43974618 },\r\n    { 'rank': 17, 'name': 'Iran', 'value': bubblesize(42731675), 'color': '#7F38A0 ', 'population': 42731675 },\r\n    { 'rank': 18, 'name': 'Egypt', 'value': bubblesize(37519531), 'color': '#816F28', 'population': 37519531 },\r\n    { 'rank': 19, 'name': 'Spain', 'value': bubblesize(37337607), 'color': '#2E769F', 'population': 37337607 },\r\n    { 'rank': 20, 'name': 'Italy', 'value': bubblesize(36442438), 'color': '#2E769F', 'population': 36442438 },\r\n    { 'rank': 21, 'name': 'Thailand', 'value': bubblesize(32710169), 'color': '#7F38A0 ', 'population': 32710169 },\r\n    { 'rank': 22, 'name': 'Canada', 'value': bubblesize(32602776), 'color': '#99295D ', 'population': 32602776 },\r\n    { 'rank': 23, 'name': 'Argentina', 'value': bubblesize(30758972), 'color': '#364A98', 'population': 30758972 },\r\n    { 'rank': 24, 'name': 'South Africa', 'value': bubblesize(30248355), 'color': '#816F28', 'population': 30248355 },\r\n    { 'rank': 25, 'name': 'Pakistan', 'value': bubblesize(29965859), 'color': '#7F38A0 ', 'population': 29965859 },\r\n    { 'rank': 26, 'name': 'Bangladesh', 'value': bubblesize(29738660), 'color': '#7F38A0 ', 'population': 29738660 },\r\n    { 'rank': 27, 'name': 'Colombia', 'value': bubblesize(28287098), 'color': '#364A98', 'population': 28287098 },\r\n    { 'rank': 28, 'name': 'Poland', 'value': bubblesize(28018492), 'color': '#2E769F', 'population': 28018492 },\r\n    { 'rank': 29, 'name': 'Malaysia', 'value': bubblesize(24572446), 'color': '#7F38A0 ', 'population': 24572446 },\r\n    { 'rank': 30, 'name': 'Saudi Arabia', 'value': bubblesize(23803319), 'color': '#7F38A0 ', 'population': 23803319 },\r\n\r\n];\r\nwindow.defaultData = [\r\n    { \"continent\": \"North America\", 'color': '#71B081' },\r\n    { \"continent\": \"South America\", 'color': '#5A9A77' },\r\n    { \"continent\": \"Africa\", 'color': '#498770' },\r\n    { \"continent\": \"Europe\", 'color': '#39776C' },    \r\n    { \"continent\": \"Asia\", 'color': '#266665' },    \r\n    { \"continent\": \"Australia\", 'color': '#124F5E ' }\r\n];\r\n\r\nwindow.contCountriesdata = [\r\n    { name: 'Aruba', continent: 'North America' },\r\n    { name: 'Afghanistan', continent: 'Asia' },\r\n    { name: 'Angola', continent: 'Africa' },\r\n    { name: 'Anguilla', continent: 'North America' },\r\n    { name: 'Albania', continent: 'Europe' },\r\n    { name: 'Aland', continent: 'Europe' },\r\n    { name: 'Andorra', continent: 'Europe' },\r\n    { name: 'United Arab Emirates', continent: 'Asia' },\r\n    { name: 'Argentina', continent: 'South America' },\r\n    { name: 'Armenia', continent: 'Asia' },\r\n    { name: 'American Samoa', continent: 'Oceania' },\r\n    { name: 'Antarctica', continent: 'Antarctica' },\r\n    { name: 'Fr. S. Antarctic Lands', continent: 'Seven seas (open ocean)' },\r\n    { name: 'Antigua and Barb.', continent: 'North America' },\r\n    { name: 'Australia', continent: 'Oceania', 'color': '#9FD0D3' },\r\n    { name: 'Austria', continent: 'Europe' },\r\n    { name: 'Azerbaijan', continent: 'Asia' },\r\n    { name: 'Burundi', continent: 'Africa' },\r\n    { name: 'Belgium', continent: 'Europe' },\r\n    { name: 'Benin', continent: 'Africa' },\r\n    { name: 'Burkina Faso', continent: 'Africa' },\r\n    { name: 'Bangladesh', continent: 'Asia' },\r\n    { name: 'Bulgaria', continent: 'Europe' },\r\n    { name: 'Bahrain', continent: 'Asia' },\r\n    { name: 'Bahamas', continent: 'North America' },\r\n    { name: 'Bosnia and Herz.', continent: 'Europe' },\r\n    { name: 'Bajo Nuevo Bank (Petrel Is.)', continent: 'North America' },\r\n    { name: 'St-Barthélemy', continent: 'North America' },\r\n    { name: 'Belarus', continent: 'Europe' },\r\n    { name: 'Belize', continent: 'North America' },\r\n    { name: 'Bermuda', continent: 'North America' },\r\n    { name: 'Bolivia', continent: 'South America' },\r\n    { name: 'Brazil', continent: 'South America', 'color': '#9FD0D3' },\r\n    { name: 'Barbados', continent: 'North America' },\r\n    { name: 'Brunei', continent: 'Asia' },\r\n    { name: 'Bhutan', continent: 'Asia' },\r\n    { name: 'Botswana', continent: 'Africa' },\r\n    { name: 'Central African Rep.', continent: 'Africa' },\r\n    { name: 'Canada', continent: 'North America', 'color': '#9FD0D3' },\r\n    { name: 'Switzerland', continent: 'Europe' },\r\n    { name: 'Chile', continent: 'South America' },\r\n    { name: 'China', continent: 'Asia' },\r\n    { name: \"Côte d'Ivoire\", continent: 'Africa' },\r\n    { name: 'Clipperton I.', continent: 'Seven seas (open ocean)' },\r\n    { name: 'Cameroon', continent: 'Africa' },\r\n    { name: 'Cyprus U.N. Buffer Zone', continent: 'Asia' },\r\n    { name: 'Dem. Rep. Congo', continent: 'Africa' },\r\n    { name: 'Congo', continent: 'Africa' },\r\n    { name: 'Cook Is.', continent: 'Oceania' },\r\n    { name: 'Colombia', continent: 'South America' },\r\n    { name: 'Comoros', continent: 'Africa' },\r\n    { name: 'Cape Verde', continent: 'Africa' },\r\n    { name: 'Costa Rica', continent: 'North America' },\r\n    { name: 'Coral Sea Is.', continent: 'Oceania' },\r\n    { name: 'Cuba', continent: 'North America' },\r\n    { name: 'Curaçao', continent: 'North America' },\r\n    { name: 'Cayman Is.', continent: 'North America' },\r\n    { name: 'N. Cyprus', continent: 'Asia' },\r\n    { name: 'Cyprus', continent: 'Asia' },\r\n    { name: 'Czech Rep.', continent: 'Europe' },\r\n    { name: 'Germany', continent: 'Europe' },\r\n    { name: 'Djibouti', continent: 'Africa' },\r\n    { name: 'Dominica', continent: 'North America' },\r\n    { name: 'Denmark', continent: 'Europe' },\r\n    { name: 'Dominican Rep.', continent: 'North America' },\r\n    { name: 'Algeria', continent: 'Africa' },\r\n    { name: 'Ecuador', continent: 'South America' },\r\n    { name: 'Egypt', continent: 'Africa' },\r\n    { name: 'Eritrea', continent: 'Africa' },\r\n    { name: 'Dhekelia', continent: 'Asia' },\r\n    { name: 'Spain', continent: 'Europe' },\r\n    { name: 'Estonia', continent: 'Europe' },\r\n    { name: 'Ethiopia', continent: 'Africa' },\r\n    { name: 'Finland', continent: 'Europe' },\r\n    { name: 'Fiji', continent: 'Oceania' },\r\n    { name: 'Falkland Is.', continent: 'South America' },\r\n    { name: 'France', continent: 'Europe' },\r\n    { name: 'Faeroe Is.', continent: 'Europe' },\r\n    { name: 'Micronesia', continent: 'Oceania' },\r\n    { name: 'Gabon', continent: 'Africa' },\r\n    { name: 'United Kingdom', continent: 'Europe' },\r\n    { name: 'Georgia', continent: 'Asia' },\r\n    { name: 'Guernsey', continent: 'Europe' },\r\n    { name: 'Ghana', continent: 'Africa' },\r\n    { name: 'Gibraltar', continent: 'Europe' },\r\n    { name: 'Guinea', continent: 'Africa' },\r\n    { name: 'Gambia', continent: 'Africa' },\r\n    { name: 'Guinea-Bissau', continent: 'Africa' },\r\n    { name: 'Eq. Guinea', continent: 'Africa' },\r\n    { name: 'Greece', continent: 'Europe' },\r\n    { name: 'Grenada', continent: 'North America' },\r\n    { name: 'Greenland', continent: 'North America' },\r\n    { name: 'Guatemala', continent: 'North America' },\r\n    { name: 'Guam', continent: 'Oceania' },\r\n    { name: 'Guyana', continent: 'South America' },\r\n    { name: 'Hong Kong', continent: 'Asia' },\r\n    { name: 'Heard I. and McDonald Is.', continent: 'Seven seas (open ocean)' },\r\n    { name: 'Honduras', continent: 'North America' },\r\n    { name: 'Croatia', continent: 'Europe' },\r\n    { name: 'Haiti', continent: 'North America' },\r\n    { name: 'Hungary', continent: 'Europe' },\r\n    { name: 'Indonesia', continent: 'Asia' },\r\n    { name: 'Isle of Man', continent: 'Europe' },\r\n    { name: 'India', continent: 'Asia','color': '#9FD0D3' },\r\n    { name: 'Indian Ocean Ter.', continent: 'Asia' },\r\n    { name: 'Br. Indian Ocean Ter.', continent: 'Seven seas (open ocean)' },\r\n    { name: 'Ireland', continent: 'Europe' },\r\n    { name: 'Iran', continent: 'Asia' },\r\n    { name: 'Iraq', continent: 'Asia' },\r\n    { name: 'Iceland', continent: 'Europe' },\r\n    { name: 'Israel', continent: 'Asia' },\r\n    { name: 'Italy', continent: 'Europe' },\r\n    { name: 'Jamaica', continent: 'North America' },\r\n    { name: 'Jersey', continent: 'Europe' },\r\n    { name: 'Jordan', continent: 'Asia' },\r\n    { name: 'Japan', continent: 'Asia', 'color': '#9FD0D3' },\r\n    { name: 'Baikonur', continent: 'Asia' },\r\n    { name: 'Siachen Glacier', continent: 'Asia' },\r\n    { name: 'Kazakhstan', continent: 'Asia' },\r\n    { name: 'Kenya', continent: 'Africa' },\r\n    { name: 'Kyrgyzstan', continent: 'Asia' },\r\n    { name: 'Cambodia', continent: 'Asia' },\r\n    { name: 'Kiribati', continent: 'Oceania' },\r\n    { name: 'St. Kitts and Nevis', continent: 'North America' },\r\n    { name: 'Korea', continent: 'Asia' },\r\n    { name: 'Kosovo', continent: 'Europe' },\r\n    { name: 'Kuwait', continent: 'Asia' },\r\n    { name: 'Lao PDR', continent: 'Asia' },\r\n    { name:'Lebanon', continent: 'Asia' },\r\n    { name:'Liberia', continent: 'Africa' },\r\n    { name:'Libya', continent: 'Africa' },\r\n    { name:'Saint Lucia', continent: 'North America' },\r\n    { name:'Liechtenstein', continent: 'Europe' },\r\n    { name:'Sri Lanka', continent: 'Asia' },\r\n    { name:'Lesotho', continent: 'Africa' },\r\n    { name:'Lithuania', continent: 'Europe' },\r\n    { name:'Luxembourg', continent: 'Europe' },\r\n    { name:'Latvia', continent: 'Europe' },\r\n    { name:'Macao', continent: 'Asia' },\r\n    { name:'St-Martin', continent: 'North America' },\r\n    { name:'Morocco', continent: 'Africa' },\r\n    { name:'Monaco', continent: 'Europe' },\r\n    { name:'Moldova', continent: 'Europe' },\r\n    { name:'Madagascar', continent: 'Africa' },\r\n    { name:'Maldives', continent: 'Seven seas (open ocean)' },\r\n    { name:'Mexico', continent: 'North America' },\r\n    { name:'Marshall Is.', continent: 'Oceania' },\r\n    { name:'Macedonia', continent: 'Europe' },\r\n    { name:'Mali', continent: 'Africa' },\r\n    { name:'Malta', continent: 'Europe' },\r\n    { name:'Myanmar', continent: 'Asia' },\r\n    { name:'Montenegro', continent: 'Europe' },\r\n    { name:'Mongolia', continent: 'Asia' },\r\n    { name:'N. Mariana Is.', continent: 'Oceania' },\r\n    { name:'Mozambique', continent: 'Africa' },\r\n    { name:'Mauritania', continent: 'Africa' },\r\n    { name:'Montserrat', continent: 'North America' },\r\n    { name:'Mauritius', continent: 'Seven seas (open ocean)' },\r\n    { name:'Malawi', continent: 'Africa' },\r\n    { name:'Malaysia', continent: 'Asia' },\r\n    { name:'Namibia', continent: 'Africa' },\r\n    { name:'New Caledonia', continent: 'Oceania' },\r\n    { name:'Niger', continent: 'Africa' },\r\n    { name:'Norfolk Island', continent: 'Oceania' },\r\n    { name:'Nigeria', continent: 'Africa' },\r\n    { name:'Nicaragua', continent: 'North America' },\r\n    { name:'Niue', continent: 'Oceania' },\r\n    { name:'Netherlands', continent: 'Europe' },\r\n    { name:'Norway', continent: 'Europe' },\r\n    { name:'Nepal', continent: 'Asia' },\r\n    { name:'Nauru', continent: 'Oceania' },\r\n    { name:'New Zealand', continent: 'Oceania' },\r\n    { name:'Oman', continent: 'Asia' },\r\n    { name:'Pakistan', continent: 'Asia' },\r\n    { name:'Panama', continent: 'North America' },\r\n    { name:'Pitcairn Is.', continent: 'Oceania' },\r\n    { name:'Peru', continent: 'South America' },\r\n    { name:'Spratly Is.', continent: 'Asia' },\r\n    { name:'Philippines', continent: 'Asia' },\r\n    { name:'Palau', continent: 'Oceania' },\r\n    { name:'Papua New Guinea', continent: 'Oceania' },\r\n    { name:'Poland', continent: 'Europe' },\r\n    { name:'Puerto Rico', continent: 'North America' },\r\n    { name:'Dem. Rep. Korea', continent: 'Asia' },\r\n    { name:'Portugal', continent: 'Europe' },\r\n    { name:'Paraguay', continent: 'South America' },\r\n    { name:'Palestine', continent: 'Asia' },\r\n    { name:'Fr. Polynesia', continent: 'Oceania' },\r\n    { name:'Qatar', continent: 'Asia' },\r\n    { name:'Romania', continent: 'Europe' },\r\n    { name:'Russia', continent: 'Europe', 'color': '#9FD0D3' },\r\n    { name:'Rwanda', continent: 'Africa' },\r\n    { name:'W. Sahara', continent: 'Africa' },\r\n    { name:'Saudi Arabia', continent: 'Asia' },\r\n    { name:'Scarborough Reef', continent: 'Asia' },\r\n    { name:'Sudan', continent: 'Africa' },\r\n    { name:'S. Sudan', continent: 'Africa' },\r\n    { name:'Senegal', continent: 'Africa' },\r\n    { name:'Serranilla Bank', continent: 'North America' },\r\n    { name:'Singapore', continent: 'Asia' },\r\n    { name:'S. Geo. and S. Sandw. Is.', continent: 'Seven seas (open ocean)' },\r\n    { name:'Saint Helena', continent: 'Seven seas (open ocean)' },\r\n    { name:'Solomon Is.', continent: 'Oceania' },\r\n    { name:'Sierra Leone', continent: 'Africa' },\r\n    { name:'El Salvador', continent: 'North America' },\r\n    { name:'San Marino', continent: 'Europe' },\r\n    { name:'Somaliland', continent: 'Africa' },\r\n    { name:'Somalia', continent: 'Africa' },\r\n    { name:'St. Pierre and Miquelon', continent: 'North America' },\r\n    { name:'Serbia', continent: 'Europe' },\r\n    { name:'São Tomé and Principe', continent: 'Africa' },\r\n    { name:'Suriname', continent: 'South America' },\r\n    { name:'Slovakia', continent: 'Europe' },\r\n    { name:'Slovenia', continent: 'Europe' },\r\n    { name:'Sweden', continent: 'Europe' },\r\n    { name:'Swaziland', continent: 'Africa' },\r\n    { name:'Sint Maarten', continent: 'North America' },\r\n    { name:'Seychelles', continent: 'Seven seas (open ocean)' },\r\n    { name:'Syria', continent: 'Asia' },\r\n    { name:'Turks and Caicos Is.', continent: 'North America' },\r\n    { name:'Chad', continent: 'Africa' },\r\n    { name:'Togo', continent: 'Africa' },\r\n    { name:'Thailand', continent: 'Asia' },\r\n    { name:'Tajikistan', continent: 'Asia' },\r\n    { name:'Turkmenistan', continent: 'Asia' },\r\n    { name:'Timor-Leste', continent: 'Asia' },\r\n    { name:'Tonga', continent: 'Oceania' },\r\n    { name:'Trinidad and Tobago', continent: 'North America' },\r\n    { name:'Tunisia', continent: 'Africa' },\r\n    { name:'Turkey', continent: 'Asia' },\r\n    { name:'Tuvalu', continent: 'Oceania' },\r\n    { name:'Taiwan', continent: 'Asia' },\r\n    { name:'Tanzania', continent: 'Africa' },\r\n    { name:'Uganda', continent: 'Africa' },\r\n    { name:'Ukraine', continent: 'Europe' },\r\n    { name:'U.S. Minor Outlying Is.', continent: 'North America' },\r\n    { name:'Uruguay', continent: 'South America' },\r\n    { name:'United States', continent: 'North America' },\r\n    { name:'USNB Guantanamo Bay', continent: 'North America' },\r\n    { name:'Uzbekistan', continent: 'Asia' },\r\n    { name:'Vatican', continent: 'Europe' },\r\n    { name:'St. Vin. and Gren.', continent: 'North America' },\r\n    { name:'Venezuela', continent: 'South America' },\r\n    { name:'British Virgin Is.', continent: 'North America' },\r\n    { name:'U.S. Virgin Is.', continent: 'North America' },\r\n    { name:'Vietnam', continent: 'Asia' },\r\n    { name:'Vanuatu', continent: 'Oceania' },\r\n    { name:'Wallis and Futuna Is.', continent: 'Oceania' },\r\n    { name:'Akrotiri', continent: 'Asia' },\r\n    { name:'Samoa', continent: 'Oceania' },\r\n    { name:'Yemen', continent: 'Asia' },\r\n    { name:'South Africa', continent: 'Africa' },\r\n    { name:'Zambia', continent: 'Africa' },\r\n    { name:'Zimbabwe', continent: 'Africa' },\r\n    ];\r\n    \r\n\r\nwindow.markerLocation = [ {  'name' : 'New Delhi',\r\n'latitude': 28.6139391,\r\n'longitude': 77.2090212\r\n}, {\r\n'name' : 'Mumbai',\r\n'latitude':  19.0759837,\r\n'longitude':  72.8776559\r\n}, {\r\n'name' : 'Chennai',\r\n'latitude':  13.0826802,\r\n'longitude': 80.2707184\r\n}, {\r\n'name' : 'Kolkata',\r\n'latitude':  22.572646,\r\n'longitude':  88.363895\r\n}, {\r\n'name' : 'Kunming',\r\n'latitude': 24.880095,\r\n'longitude':  102.832891\r\n}, {\r\n'name' : 'Beijing',\r\n'latitude':  39.9041999,\r\n'longitude':  116.4073963\r\n}, {\r\n'name' : 'Shanghai',\r\n'latitude': 31.2303904,\r\n'longitude': 121.4737021\r\n}, {\r\n'name' : 'Hong Kong',\r\n'latitude': 22.396428,\r\n'longitude': 114.109497\r\n}, {\r\n'name' : 'Guangzhou',\r\n'latitude': 23.12911,\r\n'longitude': 113.264385\r\n},];\r\nwindow.mapsMarker = [ {\r\n    'title': 'Vienna',\r\n    'latitude': 48.2092,\r\n    'longitude': 16.3728\r\n  }, {\r\n    'title': 'Minsk',\r\n    'latitude': 53.9678,\r\n    'longitude': 27.5766\r\n  }, {\r\n    'title': 'Brussels',\r\n    'latitude': 50.8371,\r\n    'longitude': 4.3676\r\n  }, {\r\n    'title': 'Sarajevo',\r\n    'latitude': 43.8608,\r\n    'longitude': 18.4214\r\n  }, {\r\n    'title': 'Sofia',\r\n    'latitude': 42.7105,\r\n    'longitude': 23.3238\r\n  }, {\r\n    'title': 'Zagreb',\r\n    'latitude': 45.8150,\r\n    'longitude': 15.9785\r\n  }, {\r\n    'title': 'Pristina',\r\n    'latitude': 42.666667,\r\n    'longitude': 21.166667\r\n  }, {\r\n    'title': 'Prague',\r\n    'latitude': 50.0878,\r\n    'longitude': 14.4205\r\n  }, {\r\n    'title': 'Copenhagen',\r\n    'latitude': 55.6763,\r\n    'longitude': 12.5681\r\n  }, {\r\n    'title': 'Tallinn',\r\n    'latitude': 59.4389,\r\n    'longitude': 24.7545\r\n  }, {\r\n    'title': 'Helsinki',\r\n    'latitude': 60.1699,\r\n    'longitude': 24.9384\r\n  }, {\r\n    'title': 'Paris',\r\n    'latitude': 48.8567,\r\n    'longitude': 2.3510\r\n  }, {\r\n    'title': 'Berlin',\r\n    'latitude': 52.5235,\r\n    'longitude': 13.4115\r\n  }, {\r\n    'title': 'Athens',\r\n    'latitude': 37.9792,\r\n    'longitude': 23.7166\r\n  }, {\r\n    'title': 'Budapest',\r\n    'latitude': 47.4984,\r\n    'longitude': 19.0408\r\n  }, {\r\n    'title': 'Reykjavik',\r\n    'latitude': 64.1353,\r\n    'longitude': -21.8952\r\n  }, {\r\n    'title': 'Dublin',\r\n    'latitude': 53.3441,\r\n    'longitude': -6.2675\r\n  }, {\r\n    'title': 'Rome',\r\n    'latitude': 41.8955,\r\n    'longitude': 12.4823\r\n  }, {\r\n    'title': 'Riga',\r\n    'latitude': 56.9465,\r\n    'longitude': 24.1049\r\n  }, {\r\n    'title': 'Vaduz',\r\n    'latitude': 47.1411,\r\n    'longitude': 9.5215\r\n  }, {\r\n    'title': 'Vilnius',\r\n    'latitude': 54.6896,\r\n    'longitude': 25.2799\r\n  }, {\r\n    'title': 'Luxembourg',\r\n    'latitude': 49.6100,\r\n    'longitude': 6.1296\r\n  }, {\r\n    'title': 'Skopje',\r\n    'latitude': 42.0024,\r\n    'longitude': 21.4361\r\n  }, {\r\n    'title': 'Valletta',\r\n    'latitude': 35.9042,\r\n    'longitude': 14.5189\r\n  }, {\r\n    'title': 'Chisinau',\r\n    'latitude': 47.0167,\r\n    'longitude': 28.8497\r\n  }, {\r\n    'title': 'Monaco',\r\n    'latitude': 43.7325,\r\n    'longitude': 7.4189\r\n  }, {\r\n    'title': 'Podgorica',\r\n    'latitude': 42.4602,\r\n    'longitude': 19.2595\r\n  }, {\r\n    'title': 'Amsterdam',\r\n    'latitude': 52.3738,\r\n    'longitude': 4.8910\r\n  }, {\r\n    'title': 'Oslo',\r\n    'latitude': 59.9138,\r\n    'longitude': 10.7387\r\n  }, {\r\n    'title': 'Warsaw',\r\n    'latitude': 52.2297,\r\n    'longitude': 21.0122\r\n  }, {\r\n    'title': 'Lisbon',\r\n    'latitude': 38.7072,\r\n    'longitude': -9.1355\r\n  }, {\r\n    'title': 'Bucharest',\r\n    'latitude': 44.4479,\r\n    'longitude': 26.0979\r\n  }, {\r\n    'title': 'Moscow',\r\n    'latitude': 55.7558,\r\n    'longitude': 37.6176\r\n  }, {\r\n    'title': 'San Marino',\r\n    'latitude': 43.9424,\r\n    'longitude': 12.4578\r\n  }, {\r\n    'title': 'Belgrade',\r\n    'latitude': 44.8048,\r\n    'longitude': 20.4781\r\n  }, {\r\n    'title': 'Bratislava',\r\n    'latitude': 48.2116,\r\n    'longitude': 17.1547\r\n  }, {\r\n    'title': 'Ljubljana',\r\n    'latitude': 46.0514,\r\n    'longitude': 14.5060\r\n  }, {\r\n    'title': 'Madrid',\r\n    'latitude': 40.4167,\r\n    'longitude': -3.7033\r\n  }, {\r\n    'title': 'Stockholm',\r\n    'latitude': 59.3328,\r\n    'longitude': 18.0645\r\n  }, {\r\n    'title': 'Bern',\r\n    'latitude': 46.9480,\r\n    'longitude': 7.4481\r\n  }, {\r\n    'title': 'Kiev',\r\n    'latitude': 50.4422,\r\n    'longitude': 30.5367\r\n  }, {\r\n    'title': 'London',\r\n    'latitude': 51.5002,\r\n    'longitude': -0.1262\r\n  }, {\r\n    'title': 'Gibraltar',\r\n    'latitude': 36.1377,\r\n    'longitude': -5.3453\r\n  }, {\r\n    'title': 'Saint Peter Port',\r\n    'latitude': 49.4660,\r\n    'longitude': -2.5522\r\n  }, {\r\n    'title': 'Douglas',\r\n    'latitude': 54.1670,\r\n    'longitude': -4.4821\r\n  }, {\r\n    'title': 'Saint Helier',\r\n    'latitude': 49.1919,\r\n    'longitude': -2.1071\r\n  }, {\r\n    'title': 'Kabul',\r\n    'latitude': 34.5155,\r\n    'longitude': 69.1952\r\n  }, {\r\n    'title': 'Yerevan',\r\n    'latitude': 40.1596,\r\n    'longitude': 44.5090\r\n  }, {\r\n    'title': 'Baku',\r\n    'latitude': 40.3834,\r\n    'longitude': 49.8932\r\n  }, {\r\n    'title': 'Manama',\r\n    'latitude': 26.1921,\r\n    'longitude': 50.5354\r\n  }, {\r\n    'title': 'Dhaka',\r\n    'latitude': 23.7106,\r\n    'longitude': 90.3978\r\n  }, {\r\n    'title': 'Thimphu',\r\n    'latitude': 27.4405,\r\n    'longitude': 89.6730\r\n  }, {\r\n    'title': 'Bandar Seri Begawan',\r\n    'latitude': 4.9431,\r\n    'longitude': 114.9425\r\n  }, {\r\n    'title': 'Phnom Penh',\r\n    'latitude': 11.5434,\r\n    'longitude': 104.8984\r\n  }, {\r\n    'title': 'Peking',\r\n    'latitude': 39.9056,\r\n    'longitude': 116.3958\r\n  }, {\r\n    'title': 'Nicosia',\r\n    'latitude': 35.1676,\r\n    'longitude': 33.3736\r\n  }, {\r\n    'title': \"T'bilisi'\",\r\n    'latitude': 41.7010,\r\n    'longitude': 44.7930\r\n  }, {\r\n    'title': 'New Delhi',\r\n    'latitude': 28.6353,\r\n    'longitude': 77.2250\r\n  }, {\r\n    'title': 'Jakarta',\r\n    'latitude': -6.1862,\r\n    'longitude': 106.8063\r\n  }, {\r\n    'title': 'Teheran',\r\n    'latitude': 35.7061,\r\n    'longitude': 51.4358\r\n  }, {\r\n    'title': 'Baghdad',\r\n    'latitude': 33.3157,\r\n    'longitude': 44.3922\r\n  }, {\r\n    'title': 'Jerusalem',\r\n    'latitude': 31.76,\r\n    'longitude': 35.17\r\n  }, {\r\n    'title': 'Tokyo',\r\n    'latitude': 35.6785,\r\n    'longitude': 139.6823\r\n  }, {\r\n    'title': 'Amman',\r\n    'latitude': 31.9394,\r\n    'longitude': 35.9349\r\n  }, {\r\n    'title': 'Astana',\r\n    'latitude': 51.1796,\r\n    'longitude': 71.4475\r\n  }, {\r\n    'title': 'Kuwait',\r\n    'latitude': 29.3721,\r\n    'longitude': 47.9824\r\n  }, {\r\n    'title': 'Bishkek',\r\n    'latitude': 42.8679,\r\n    'longitude': 74.5984\r\n  }, {\r\n    'title': 'Vientiane',\r\n    'latitude': 17.9689,\r\n    'longitude': 102.6137\r\n  }, {\r\n    'title': 'Beyrouth / Beirut',\r\n    'latitude': 33.8872,\r\n    'longitude': 35.5134\r\n  }, {\r\n\r\n    'zoomLevel': 5,\r\n    'scale': 0.5,\r\n    'title': 'Kuala Lumpur',\r\n    'latitude': 3.1502,\r\n    'longitude': 101.7077\r\n  }, {\r\n\r\n    'zoomLevel': 5,\r\n    'scale': 0.5,\r\n    'title': 'Ulan Bator',\r\n    'latitude': 47.9138,\r\n    'longitude': 106.9220\r\n  }, {\r\n\r\n    'zoomLevel': 5,\r\n    'scale': 0.5,\r\n    'title': 'Pyinmana',\r\n    'latitude': 19.7378,\r\n    'longitude': 96.2083\r\n  }, {\r\n\r\n    'zoomLevel': 5,\r\n    'scale': 0.5,\r\n    'title': 'Kathmandu',\r\n    'latitude': 27.7058,\r\n    'longitude': 85.3157\r\n  }, {\r\n\r\n    'zoomLevel': 5,\r\n    'scale': 0.5,\r\n    'title': 'Muscat',\r\n    'latitude': 23.6086,\r\n    'longitude': 58.5922\r\n  }, {\r\n\r\n    'zoomLevel': 5,\r\n    'scale': 0.5,\r\n    'title': 'Islamabad',\r\n    'latitude': 33.6751,\r\n    'longitude': 73.0946\r\n  }, {\r\n\r\n    'zoomLevel': 5,\r\n    'scale': 0.5,\r\n    'title': 'Manila',\r\n    'latitude': 14.5790,\r\n    'longitude': 120.9726\r\n  }, {\r\n\r\n    'zoomLevel': 5,\r\n    'scale': 0.5,\r\n    'title': 'Doha',\r\n    'latitude': 25.2948,\r\n    'longitude': 51.5082\r\n  }, {\r\n\r\n    'zoomLevel': 5,\r\n    'scale': 0.5,\r\n    'title': 'Riyadh',\r\n    'latitude': 24.6748,\r\n    'longitude': 46.6977\r\n  }, {\r\n\r\n    'zoomLevel': 5,\r\n    'scale': 0.5,\r\n    'title': 'Singapore',\r\n    'latitude': 1.2894,\r\n    'longitude': 103.8500\r\n  }, {\r\n\r\n    'zoomLevel': 5,\r\n    'scale': 0.5,\r\n    'title': 'Seoul',\r\n    'latitude': 37.5139,\r\n    'longitude': 126.9828\r\n  }, {\r\n\r\n    'zoomLevel': 5,\r\n    'scale': 0.5,\r\n    'title': 'Colombo',\r\n    'latitude': 6.9155,\r\n    'longitude': 79.8572\r\n  }, {\r\n\r\n    'zoomLevel': 5,\r\n    'scale': 0.5,\r\n    'title': 'Damascus',\r\n    'latitude': 33.5158,\r\n    'longitude': 36.2939\r\n  }, {\r\n\r\n    'zoomLevel': 5,\r\n    'scale': 0.5,\r\n    'title': 'Taipei',\r\n    'latitude': 25.0338,\r\n    'longitude': 121.5645\r\n  }, {\r\n\r\n    'zoomLevel': 5,\r\n    'scale': 0.5,\r\n    'title': 'Dushanbe',\r\n    'latitude': 38.5737,\r\n    'longitude': 68.7738\r\n  }, {\r\n\r\n    'zoomLevel': 5,\r\n    'scale': 0.5,\r\n    'title': 'Bangkok',\r\n    'latitude': 13.7573,\r\n    'longitude': 100.5020\r\n  }, {\r\n\r\n    'zoomLevel': 5,\r\n    'scale': 0.5,\r\n    'title': 'Dili',\r\n    'latitude': -8.5662,\r\n    'longitude': 125.5880\r\n  }, {\r\n\r\n    'zoomLevel': 5,\r\n    'scale': 0.5,\r\n    'title': 'Ankara',\r\n    'latitude': 39.9439,\r\n    'longitude': 32.8560\r\n  }, {\r\n\r\n    'zoomLevel': 5,\r\n    'scale': 0.5,\r\n    'title': 'Ashgabat',\r\n    'latitude': 37.9509,\r\n    'longitude': 58.3794\r\n  }, {\r\n\r\n    'zoomLevel': 5,\r\n    'scale': 0.5,\r\n    'title': 'Abu Dhabi',\r\n    'latitude': 24.4764,\r\n    'longitude': 54.3705\r\n  }, {\r\n\r\n    'zoomLevel': 5,\r\n    'scale': 0.5,\r\n    'title': 'Tashkent',\r\n    'latitude': 41.3193,\r\n    'longitude': 69.2481\r\n  }, {\r\n\r\n    'zoomLevel': 5,\r\n    'scale': 0.5,\r\n    'title': 'Hanoi',\r\n    'latitude': 21.0341,\r\n    'longitude': 105.8372\r\n  }, {\r\n\r\n    'zoomLevel': 5,\r\n    'scale': 0.5,\r\n    'title': 'Sanaa',\r\n    'latitude': 15.3556,\r\n    'longitude': 44.2081\r\n  }, {\r\n\r\n    'zoomLevel': 5,\r\n    'scale': 0.5,\r\n    'title': 'Buenos Aires',\r\n    'latitude': -34.6118,\r\n    'longitude': -58.4173\r\n  }, {\r\n\r\n    'zoomLevel': 5,\r\n    'scale': 0.5,\r\n    'title': 'Bridgetown',\r\n    'latitude': 13.0935,\r\n    'longitude': -59.6105\r\n  }, {\r\n\r\n    'zoomLevel': 5,\r\n    'scale': 0.5,\r\n    'title': 'Belmopan',\r\n    'latitude': 17.2534,\r\n    'longitude': -88.7713\r\n  }, {\r\n\r\n    'zoomLevel': 5,\r\n    'scale': 0.5,\r\n    'title': 'Sucre',\r\n    'latitude': -19.0421,\r\n    'longitude': -65.2559\r\n  }, {\r\n\r\n    'zoomLevel': 5,\r\n    'scale': 0.5,\r\n    'title': 'Brasilia',\r\n    'latitude': -15.7801,\r\n    'longitude': -47.9292\r\n  }, {\r\n\r\n    'zoomLevel': 5,\r\n    'scale': 0.5,\r\n    'title': 'Ottawa',\r\n    'latitude': 45.4235,\r\n    'longitude': -75.6979\r\n  }, {\r\n\r\n    'zoomLevel': 5,\r\n    'scale': 0.5,\r\n    'title': 'Santiago',\r\n    'latitude': -33.4691,\r\n    'longitude': -70.6420\r\n  }, {\r\n\r\n    'zoomLevel': 5,\r\n    'scale': 0.5,\r\n    'title': 'Bogota',\r\n    'latitude': 4.6473,\r\n    'longitude': -74.0962\r\n  }, {\r\n\r\n    'zoomLevel': 5,\r\n    'scale': 0.5,\r\n    'title': 'San Jose',\r\n    'latitude': 9.9402,\r\n    'longitude': -84.1002\r\n  }, {\r\n\r\n    'zoomLevel': 5,\r\n    'scale': 0.5,\r\n    'title': 'Havana',\r\n    'latitude': 23.1333,\r\n    'longitude': -82.3667\r\n  }, {\r\n\r\n    'zoomLevel': 5,\r\n    'scale': 0.5,\r\n    'title': 'Roseau',\r\n    'latitude': 15.2976,\r\n    'longitude': -61.3900\r\n  }, {\r\n\r\n    'zoomLevel': 5,\r\n    'scale': 0.5,\r\n    'title': 'Santo Domingo',\r\n    'latitude': 18.4790,\r\n    'longitude': -69.8908\r\n  }, {\r\n\r\n    'zoomLevel': 5,\r\n    'scale': 0.5,\r\n    'title': 'Quito',\r\n    'latitude': -0.2295,\r\n    'longitude': -78.5243\r\n  }, {\r\n\r\n    'zoomLevel': 5,\r\n    'scale': 0.5,\r\n    'title': 'San Salvador',\r\n    'latitude': 13.7034,\r\n    'longitude': -89.2073\r\n  }, {\r\n\r\n    'zoomLevel': 5,\r\n    'scale': 0.5,\r\n    'title': 'Guatemala',\r\n    'latitude': 14.6248,\r\n    'longitude': -90.5328\r\n  }, {\r\n\r\n    'zoomLevel': 5,\r\n    'scale': 0.5,\r\n    'title': 'Ciudad de Mexico',\r\n    'latitude': 19.4271,\r\n    'longitude': -99.1276\r\n  }, {\r\n\r\n    'zoomLevel': 5,\r\n    'scale': 0.5,\r\n    'title': 'Managua',\r\n    'latitude': 12.1475,\r\n    'longitude': -86.2734\r\n  }, {\r\n\r\n    'zoomLevel': 5,\r\n    'scale': 0.5,\r\n    'title': 'Panama',\r\n    'latitude': 8.9943,\r\n    'longitude': -79.5188\r\n  }, {\r\n\r\n    'zoomLevel': 5,\r\n    'scale': 0.5,\r\n    'title': 'Asuncion',\r\n    'latitude': -25.3005,\r\n    'longitude': -57.6362\r\n  }, {\r\n\r\n    'zoomLevel': 5,\r\n    'scale': 0.5,\r\n    'title': 'Lima',\r\n    'latitude': -12.0931,\r\n    'longitude': -77.0465\r\n  }, {\r\n\r\n    'zoomLevel': 5,\r\n    'scale': 0.5,\r\n    'title': 'Castries',\r\n    'latitude': 13.9972,\r\n    'longitude': -60.0018\r\n  }, {\r\n\r\n    'zoomLevel': 5,\r\n    'scale': 0.5,\r\n    'title': 'Paramaribo',\r\n    'latitude': 5.8232,\r\n    'longitude': -55.1679\r\n  }, {\r\n\r\n    'zoomLevel': 5,\r\n    'scale': 0.5,\r\n    'title': 'Washington D.C.',\r\n    'latitude': 38.8921,\r\n    'longitude': -77.0241\r\n  }, {\r\n\r\n    'zoomLevel': 5,\r\n    'scale': 0.5,\r\n    'title': 'Montevideo',\r\n    'latitude': -34.8941,\r\n    'longitude': -56.0675\r\n  }, {\r\n\r\n    'zoomLevel': 5,\r\n    'scale': 0.5,\r\n    'title': 'Caracas',\r\n    'latitude': 10.4961,\r\n    'longitude': -66.8983\r\n  }, {\r\n\r\n    'zoomLevel': 5,\r\n    'scale': 0.5,\r\n    'title': 'Oranjestad',\r\n    'latitude': 12.5246,\r\n    'longitude': -70.0265\r\n  }, {\r\n\r\n    'zoomLevel': 5,\r\n    'scale': 0.5,\r\n    'title': 'Cayenne',\r\n    'latitude': 4.9346,\r\n    'longitude': -52.3303\r\n  }, {\r\n\r\n    'zoomLevel': 5,\r\n    'scale': 0.5,\r\n    'title': 'Plymouth',\r\n    'latitude': 16.6802,\r\n    'longitude': -62.2014\r\n  }, {\r\n\r\n    'zoomLevel': 5,\r\n    'scale': 0.5,\r\n    'title': 'San Juan',\r\n    'latitude': 18.4500,\r\n    'longitude': -66.0667\r\n  }, {\r\n\r\n    'zoomLevel': 5,\r\n    'scale': 0.5,\r\n    'title': 'Algiers',\r\n    'latitude': 36.7755,\r\n    'longitude': 3.0597\r\n  }, {\r\n\r\n    'zoomLevel': 5,\r\n    'scale': 0.5,\r\n    'title': 'Luanda',\r\n    'latitude': -8.8159,\r\n    'longitude': 13.2306\r\n  }, {\r\n\r\n    'zoomLevel': 5,\r\n    'scale': 0.5,\r\n    'title': 'Porto-Novo',\r\n    'latitude': 6.4779,\r\n    'longitude': 2.6323\r\n  }, {\r\n\r\n    'zoomLevel': 5,\r\n    'scale': 0.5,\r\n    'title': 'Gaborone',\r\n    'latitude': -24.6570,\r\n    'longitude': 25.9089\r\n  }, {\r\n\r\n    'zoomLevel': 5,\r\n    'scale': 0.5,\r\n    'title': 'Ouagadougou',\r\n    'latitude': 12.3569,\r\n    'longitude': -1.5352\r\n  }, {\r\n\r\n    'zoomLevel': 5,\r\n    'scale': 0.5,\r\n    'title': 'Bujumbura',\r\n    'latitude': -3.3818,\r\n    'longitude': 29.3622\r\n  }, {\r\n\r\n    'zoomLevel': 5,\r\n    'scale': 0.5,\r\n    'title': 'Yaounde',\r\n    'latitude': 3.8612,\r\n    'longitude': 11.5217\r\n  }, {\r\n\r\n    'zoomLevel': 5,\r\n    'scale': 0.5,\r\n    'title': 'Bangui',\r\n    'latitude': 4.3621,\r\n    'longitude': 18.5873\r\n  }, {\r\n\r\n    'zoomLevel': 5,\r\n    'scale': 0.5,\r\n    'title': 'Brazzaville',\r\n    'latitude': -4.2767,\r\n    'longitude': 15.2662\r\n  }, {\r\n\r\n    'zoomLevel': 5,\r\n    'scale': 0.5,\r\n    'title': 'Kinshasa',\r\n    'latitude': -4.3369,\r\n    'longitude': 15.3271\r\n  }, {\r\n\r\n    'zoomLevel': 5,\r\n    'scale': 0.5,\r\n    'title': 'Yamoussoukro',\r\n    'latitude': 6.8067,\r\n    'longitude': -5.2728\r\n  }, {\r\n\r\n    'zoomLevel': 5,\r\n    'scale': 0.5,\r\n    'title': 'Djibouti',\r\n    'latitude': 11.5806,\r\n    'longitude': 43.1425\r\n  }, {\r\n\r\n    'zoomLevel': 5,\r\n    'scale': 0.5,\r\n    'title': 'Cairo',\r\n    'latitude': 30.0571,\r\n    'longitude': 31.2272\r\n  }, {\r\n\r\n    'zoomLevel': 5,\r\n    'scale': 0.5,\r\n    'title': 'Asmara',\r\n    'latitude': 15.3315,\r\n    'longitude': 38.9183\r\n  }, {\r\n\r\n    'zoomLevel': 5,\r\n    'scale': 0.5,\r\n    'title': 'Addis Abeba',\r\n    'latitude': 9.0084,\r\n    'longitude': 38.7575\r\n  }, {\r\n\r\n    'zoomLevel': 5,\r\n    'scale': 0.5,\r\n    'title': 'Libreville',\r\n    'latitude': 0.3858,\r\n    'longitude': 9.4496\r\n  }, {\r\n\r\n    'zoomLevel': 5,\r\n    'scale': 0.5,\r\n    'title': 'Banjul',\r\n    'latitude': 13.4399,\r\n    'longitude': -16.6775\r\n  }, {\r\n\r\n    'zoomLevel': 5,\r\n    'scale': 0.5,\r\n    'title': 'Accra',\r\n    'latitude': 5.5401,\r\n    'longitude': -0.2074\r\n  }, {\r\n\r\n    'zoomLevel': 5,\r\n    'scale': 0.5,\r\n    'title': 'Conakry',\r\n    'latitude': 9.5370,\r\n    'longitude': -13.6785\r\n  }, {\r\n\r\n    'zoomLevel': 5,\r\n    'scale': 0.5,\r\n    'title': 'Bissau',\r\n    'latitude': 11.8598,\r\n    'longitude': -15.5875\r\n  }, {\r\n\r\n    'zoomLevel': 5,\r\n    'scale': 0.5,\r\n    'title': 'Nairobi',\r\n    'latitude': -1.2762,\r\n    'longitude': 36.7965\r\n  }, {\r\n\r\n    'zoomLevel': 5,\r\n    'scale': 0.5,\r\n    'title': 'Maseru',\r\n    'latitude': -29.2976,\r\n    'longitude': 27.4854\r\n  }, {\r\n\r\n    'zoomLevel': 5,\r\n    'scale': 0.5,\r\n    'title': 'Monrovia',\r\n    'latitude': 6.3106,\r\n    'longitude': -10.8047\r\n  }, {\r\n\r\n    'zoomLevel': 5,\r\n    'scale': 0.5,\r\n    'title': 'Tripoli',\r\n    'latitude': 32.8830,\r\n    'longitude': 13.1897\r\n  }, {\r\n\r\n    'zoomLevel': 5,\r\n    'scale': 0.5,\r\n    'title': 'Antananarivo',\r\n    'latitude': -18.9201,\r\n    'longitude': 47.5237\r\n  }, {\r\n\r\n    'zoomLevel': 5,\r\n    'scale': 0.5,\r\n    'title': 'Lilongwe',\r\n    'latitude': -13.9899,\r\n    'longitude': 33.7703\r\n  }, {\r\n\r\n    'zoomLevel': 5,\r\n    'scale': 0.5,\r\n    'title': 'Bamako',\r\n    'latitude': 12.6530,\r\n    'longitude': -7.9864\r\n  }, {\r\n\r\n    'zoomLevel': 5,\r\n    'scale': 0.5,\r\n    'title': 'Nouakchott',\r\n    'latitude': 18.0669,\r\n    'longitude': -15.9900\r\n  }, {\r\n\r\n    'zoomLevel': 5,\r\n    'scale': 0.5,\r\n    'title': 'Port Louis',\r\n    'latitude': -20.1654,\r\n    'longitude': 57.4896\r\n  }, {\r\n\r\n    'zoomLevel': 5,\r\n    'scale': 0.5,\r\n    'title': 'Rabat',\r\n    'latitude': 33.9905,\r\n    'longitude': -6.8704\r\n  }, {\r\n\r\n    'zoomLevel': 5,\r\n    'scale': 0.5,\r\n    'title': 'Maputo',\r\n    'latitude': -25.9686,\r\n    'longitude': 32.5804\r\n  }, {\r\n\r\n    'zoomLevel': 5,\r\n    'scale': 0.5,\r\n    'title': 'Windhoek',\r\n    'latitude': -22.5749,\r\n    'longitude': 17.0805\r\n  }, {\r\n    'title': 'Niamey',\r\n    'latitude': 13.5164,\r\n    'longitude': 2.1157\r\n  }, {\r\n    'title': 'Abuja',\r\n    'latitude': 9.0580,\r\n    'longitude': 7.4891\r\n  }, {\r\n    'title': 'Kigali',\r\n    'latitude': -1.9441,\r\n    'longitude': 30.0619\r\n  }, {\r\n    'title': 'Dakar',\r\n    'latitude': 14.6953,\r\n    'longitude': -17.4439\r\n  }, {\r\n    'title': 'Freetown',\r\n    'latitude': 8.4697,\r\n    'longitude': -13.2659\r\n  }, {\r\n    'title': 'Mogadishu',\r\n    'latitude': 2.0411,\r\n    'longitude': 45.3426\r\n  }, {\r\n    'title': 'Pretoria',\r\n    'latitude': -25.7463,\r\n    'longitude': 28.1876\r\n  }, {\r\n    'title': 'Mbabane',\r\n    'latitude': -26.3186,\r\n    'longitude': 31.1410\r\n  }, {\r\n    'title': 'Dodoma',\r\n    'latitude': -6.1670,\r\n    'longitude': 35.7497\r\n  }, {\r\n    'title': 'Lome',\r\n    'latitude': 6.1228,\r\n    'longitude': 1.2255\r\n  }, {\r\n    'title': 'Tunis',\r\n    'latitude': 36.8117,\r\n    'longitude': 10.1761\r\n  } ];\r\n\r\nwindow.Population_Density = [\r\n    {\r\n        'code': 'AF',\r\n        'value': 53,\r\n        'name': 'Afghanistan',\r\n        'population': 29863010,\r\n        'density': 119\r\n    },\r\n    {\r\n        'code': 'AL',\r\n        'value': 117,\r\n        'name': 'Albania',\r\n        'population': 3195000,\r\n        'density': 111\r\n    },\r\n    {\r\n        'code': 'DZ',\r\n        'value': 15,\r\n        'name': 'Algeria',\r\n        'population': 34895000,\r\n        'density': 15\r\n    },\r\n    {\r\n        'code': 'AO',\r\n        'value': 15,\r\n        'name': 'Angola',\r\n        'population': 18498000,\r\n        'density': 15\r\n    },\r\n    {\r\n        'code': 'AR',\r\n        'value': 15,\r\n        'name': 'Argentina',\r\n        'population': 40091359,\r\n        'density': 14\r\n    },\r\n    {\r\n        'code': 'AM',\r\n        'value': 109,\r\n        'name': 'Armenia',\r\n        'population': 3230100,\r\n        'density': 108\r\n    },\r\n    {\r\n        'code': 'AU',\r\n        'value': 3,\r\n        'name': 'Australia',\r\n        'population': 23839595,\r\n        'density': 3.3\r\n    },\r\n    {\r\n        'code': 'AT',\r\n        'value': 102,\r\n        'name': 'Austria',\r\n        'population': 8372930,\r\n        'density': 100\r\n    },\r\n    {\r\n        'code': 'AZ',\r\n        'value': 110,\r\n        'name': 'Azerbaijan',\r\n        'population': 9165000,\r\n        'density': 106\r\n    },\r\n    {\r\n        'code': 'BS',\r\n        'value': 34,\r\n        'name': 'Bahamas',\r\n        'population': 342000,\r\n        'density': 25\r\n    },\r\n    {\r\n        'code': 'BD',\r\n        'value': 1142,\r\n        'name': 'Bangladesh',\r\n        'population': 164994076,\r\n        'density': 1118\r\n    },\r\n    {\r\n        'code': 'BY',\r\n        'value': 47,\r\n        'name': 'Belarus',\r\n        'population': 9755106,\r\n        'density': 47\r\n    },\r\n    {\r\n        'code': 'BE',\r\n        'value': 359,\r\n        'name': 'Belgium',\r\n        'population': 10827519,\r\n        'density': 355\r\n    },\r\n    {\r\n        'code': 'BZ',\r\n        'value': 15,\r\n        'name': 'Belize',\r\n        'population': 322000,\r\n        'density': 14\r\n    },\r\n    {\r\n        'code': 'BJ',\r\n        'value': 80,\r\n        'name': 'Benin',\r\n        'population': 8935000,\r\n        'density': 79\r\n    },\r\n    {\r\n        'code': 'BO',\r\n        'value': 9,\r\n        'name': 'Bolivia',        \r\n        'population': 9879000,\r\n        'density': 9\r\n    },\r\n    {\r\n        'code': 'BA',\r\n        'value': 73,\r\n        'name': 'Bosnia and Herz.',\r\n        'population': 3843126,\r\n        'density': 75\r\n    },\r\n    {\r\n        'code': 'BW',\r\n        'value': 4,\r\n        'name': 'Botswana',\r\n        'population': 1950000,\r\n        'density': 3.4\r\n    },\r\n    {\r\n        'code': 'BR',\r\n        'value': 23,\r\n        'name': 'Brazil',\r\n        'population': 206598985,\r\n        'density': 24\r\n    },\r\n    {\r\n        'code': 'BN',\r\n        'value': 76,\r\n        'name': 'Brunei',\r\n        'population': 400000,\r\n        'density': 69\r\n    },\r\n    {\r\n        'code': 'BG',\r\n        'value': 69,\r\n        'name': 'Bulgaria',\r\n        'population': 7351234,\r\n        'density': 66\r\n    },\r\n    {\r\n        'code': 'BF',\r\n        'value': 60,\r\n        'name': 'Burkina Faso',\r\n        'population': 15757000,\r\n        'density': 58\r\n    },\r\n    {\r\n        'code': 'BI',\r\n        'value': 326,\r\n        'name': 'Burundi',\r\n        'population': 8303000,\r\n        'density': 298\r\n    },\r\n    {\r\n        'code': 'KH',\r\n        'value': 80,\r\n        'name': 'Cambodia',\r\n        'population': 14805000,\r\n        'density': 82\r\n    },\r\n    {\r\n        'code': 'CM',\r\n        'value': 41,\r\n        'name': 'Cameroon',\r\n        'population': 19522000,\r\n        'density': 106\r\n    },\r\n    {\r\n        'code': 'CA',\r\n        'value': 4,\r\n        'name': 'Canada',\r\n        'population': 35151728,\r\n        'density': 3.4\r\n    },\r\n    {\r\n        'code': 'CF',\r\n        'value': 7,\r\n        'name': 'Central African Rep.',\r\n        'population': 4422000,\r\n        'density': 7.1\r\n    },\r\n    {\r\n        'code': 'TD',\r\n        'value': 9,\r\n        'name': 'Chad',\r\n        'population': 11274106,\r\n        'density': 8.8\r\n    },\r\n    {\r\n        'code': 'CL',\r\n        'value': 23,\r\n        'name': 'Chile',\r\n        'population': 18349928,\r\n        'density': 24\r\n    },\r\n    {\r\n        'code': 'CN',\r\n        'value': 143,\r\n        'name': 'China',\r\n        'population': 1389750000,\r\n        'density': 144\r\n    },\r\n    {\r\n        'code': 'CO',\r\n        'value': 42,\r\n        'name': 'Colombia',\r\n        'population': 49471496,\r\n        'density': 43\r\n    },\r\n    {\r\n        'code': 'CD',\r\n        'value': 29,\r\n        'name': 'Dem. Rep. Congo',\r\n        'population': 68692542,\r\n        'density': 29\r\n    },\r\n    {\r\n        'code': 'CG',\r\n        'value': 12,\r\n        'name': 'Congo',\r\n        'population': 3998904,\r\n        'density': 12\r\n    },\r\n    {\r\n        'code': 'CR',\r\n        'value': 91,\r\n        'name': 'Costa Rica',\r\n        'population': 4579000,\r\n        'density': 90\r\n    },\r\n    {\r\n        'code': 'HR',\r\n        'value': 79,\r\n        'name': 'Croatia',\r\n        'population': 4443000,\r\n        'density': 79\r\n    },\r\n    {\r\n        'code': 'CU',\r\n        'value': 106,\r\n        'name': 'Cuba',\r\n        'population': 11241894,\r\n        'density': 102\r\n    },\r\n    {\r\n        'code': 'CY',\r\n        'value': 119,\r\n        'name': 'Cyprus',\r\n        'population': 801851,\r\n        'density': 87\r\n    },\r\n    {\r\n        'code': 'CZ',\r\n        'value': 136,\r\n        'name': 'Czech Rep.',\r\n        'population': 10532770,\r\n        'density': 134\r\n    },\r\n    {\r\n        'code': 'DK',\r\n        'value': 131,\r\n        'name': 'Denmark',\r\n        'population': 5532531,\r\n        'density': 128\r\n    },\r\n    {\r\n        'code': 'DJ',\r\n        'value': 38,\r\n        'name': 'Djibouti',\r\n        'population': 864000,\r\n        'density': 38\r\n    },\r\n    {\r\n        'code': 'DO',\r\n        'value': 205,\r\n        'name': 'Dominican Rep.',\r\n        'population': 10090000,\r\n        'density': 207\r\n    },\r\n    {\r\n        'code': 'EG',\r\n        'value': 81,\r\n        'name': 'Egypt',\r\n        'population': 90177649,\r\n        'density': 90\r\n    },\r\n    {\r\n        'code': 'SV',\r\n        'value': 299,\r\n        'name': 'El Salvador',\r\n        'population': 6163000,\r\n        'density': 293\r\n    },\r\n    {\r\n        'code': 'GQ',\r\n        'value': 25,\r\n        'name': 'Guinea',\r\n        'population': 10069000,\r\n        'density': 41\r\n    },\r\n    {\r\n        'code': 'ER',\r\n        'value': 52,\r\n        'name': 'Eritrea',\r\n        'population': 5073000,\r\n        'density': 43\r\n    },\r\n    {\r\n        'code': 'EE',\r\n        'value': 32,\r\n        'name': 'Estonia',\r\n        'population': 1315819,\r\n        'density': 29\r\n    },\r\n    {\r\n        'code': 'ET',\r\n        'value': 83,\r\n        'name': 'Ethiopia',\r\n        'population': 79221000,\r\n        'density': 72\r\n    },\r\n    {\r\n        'code': 'FJ',\r\n        'value': 47,\r\n        'name': 'Fiji',\r\n        'population':849000,\r\n        'density': 46\r\n    },\r\n    {\r\n        'code': 'FI',\r\n        'value': 18,\r\n        'name': 'Finland',\r\n        'population': 5538741,\r\n        'density': 16\r\n    },\r\n    {\r\n        'code': 'FR',\r\n        'value': 118,\r\n        'name': 'France',\r\n        'population': 62793432,\r\n        'density': 114\r\n    },\r\n    {\r\n        'code': 'GA',\r\n        'value': 6,\r\n        'name': 'Gabon',\r\n        'population': 1475000,\r\n        'density': 5.5\r\n    },\r\n    {\r\n        'code': 'GM',\r\n        'value': 173,\r\n        'name': 'Gambia',\r\n        'population': 1705000,\r\n        'density': 151\r\n    },\r\n    {\r\n        'code': 'GE',\r\n        'value': 78,\r\n        'name': 'Georgia',\r\n        'population': 4465000,\r\n        'density': 64\r\n    },\r\n    {\r\n        'code': 'DE',\r\n        'value': 234,\r\n        'name': 'Germany',\r\n        'population': 81757600,\r\n        'density': 229\r\n    },\r\n    {\r\n        'code': 'GH',\r\n        'value': 107,\r\n        'name': 'Ghana',\r\n        'population': 23837000,\r\n        'density': 100\r\n    },\r\n    {\r\n        'code': 'GR',\r\n        'value': 88,\r\n        'name': 'Greece',\r\n        'population': 11306183,\r\n        'density': 86\r\n    },\r\n    {\r\n        'code': 'GL',\r\n        'value': 0.02,\r\n        'name': 'Greenland',\r\n        'population': 57001,\r\n        'density': 0.026\r\n    },\r\n    {\r\n        'code': 'GT',\r\n        'value': 134,\r\n        'name': 'Guatemala',\r\n        'population': 14027000,\r\n        'density': 129\r\n    },\r\n    {\r\n        'code': 'GN',\r\n        'value': 41,\r\n        'name': 'Guinea',\r\n        'population': 10069000,\r\n        'density': 41\r\n        \r\n    },\r\n    {\r\n        'code': 'GW',\r\n        'value': 54,\r\n        'name': 'Guinea-Bissau',\r\n        'population': 1611000,\r\n        'density': 45\r\n    },\r\n    {\r\n        'code': 'GY',\r\n        'value': 4,\r\n        'name': 'Guyana',\r\n        'population': 762000,\r\n        'density': 3.5\r\n    },\r\n    {\r\n        'code': 'HT',\r\n        'value': 363,\r\n        'name': 'Haiti',\r\n        'population': 10033000,\r\n        'density': 362\r\n    },\r\n    {\r\n        'code': 'HN',\r\n        'value': 68,\r\n        'name': 'Honduras',\r\n        'population': 7466000,\r\n        'density': 66\r\n    },\r\n    {\r\n        'code': 'HU',\r\n        'value': 112,\r\n        'name': 'Hungary',\r\n        'population': 10013628,\r\n        'density': 108\r\n    },\r\n    {\r\n        'code': 'IS',\r\n        'value': 3,\r\n        'name': 'Iceland',\r\n        'population': 318452,\r\n        'density': 3.1\r\n    },\r\n    {\r\n        'code': 'IN',\r\n        'value': 394,\r\n        'name': 'India',\r\n        'population': 1198003000,\r\n        'density': 364\r\n    },\r\n    {\r\n        'code': 'ID',\r\n        'value': 132,\r\n        'name': 'Indonesia',\r\n        'population': 237556363,\r\n        'density': 121\r\n    },\r\n    {\r\n        'code': 'IR',\r\n        'value': 45,\r\n        'name': 'Iran',\r\n        'population': 74196000,\r\n        'density': 117\r\n    },\r\n    {\r\n        'code': 'IQ',\r\n        'value': 73,\r\n        'name': 'Iraq',\r\n        'population': 30747000,\r\n        'density': 70\r\n    },\r\n    {\r\n        'code': 'IE',\r\n        'value': 65,\r\n        'name': 'Ireland',\r\n        'population': 4581269,\r\n        'density': 65\r\n    },\r\n    {\r\n        'code': 'IL',\r\n        'value': 352,\r\n        'name': 'Israel',\r\n        'population': 7697600,\r\n        'density': 371\r\n    },\r\n    {\r\n        'code': 'IT',\r\n        'value': 206,\r\n        'name': 'Italy',\r\n        'population': 60200060,\r\n        'density': 200\r\n    },\r\n    {\r\n        'code': 'JM',\r\n        'value': 250,\r\n        'name': 'Jamaica',\r\n        'population': 2719000,\r\n        'density': 247\r\n    },\r\n    {\r\n        'code': 'JP',\r\n        'value': 350,\r\n        'name': 'Japan',\r\n        'population': 127387000,\r\n        'density': 337\r\n    },\r\n    {\r\n        'code': 'JO',\r\n        'value': 69,\r\n        'name': 'Jordan',\r\n        'population': 6316000,\r\n        'density': 67\r\n    },\r\n    {\r\n        'code': 'KZ',\r\n        'value': 6,\r\n        'name': 'Kazakhstan',\r\n        'population': 17010000,\r\n        'density': 6.2\r\n    },\r\n    {\r\n        'code': 'KE',\r\n        'value': 71,\r\n        'name': 'Kenya',\r\n        'population': 39802000,\r\n        'density': 69\r\n    },\r\n    {\r\n        'code': 'KP',\r\n        'value': 202,\r\n        'name': 'Dem. Rep. Korea',\r\n        'population': 24051706,\r\n        'density': 200\r\n    },\r\n    {\r\n        'code': 'KR',\r\n        'value': 504,\r\n        'name': 'Korea',\r\n        'population': 48456369,\r\n        'density': 487\r\n    },\r\n    {\r\n        'code': 'XK',\r\n        'value': 167,\r\n        'name': 'Kosovo',\r\n        'population': 7800000,\r\n        'density': 101\r\n    },\r\n    {\r\n        'code': 'KW',\r\n        'value': 154,\r\n        'name': 'Kuwait',\r\n        'population': 3566437,\r\n        'density': 200\r\n    },\r\n    {\r\n        'code': 'KG',\r\n        'value': 28,\r\n        'name': 'Kyrgyzstan',\r\n        'population': 5482000,\r\n        'density': 27\r\n    },\r\n    {\r\n        'code': 'LA',\r\n        'value': 27,\r\n        'name': 'Lao PDR',\r\n        'population': 6320000,\r\n        'density': 27\r\n    },\r\n    {\r\n        'code': 'LV',\r\n        'value': 36,\r\n        'name': 'Latvia',\r\n        'population':2248961,\r\n        'density': 35\r\n    },\r\n    {\r\n        'code': 'LB',\r\n        'value': 413,\r\n        'name': 'Lebanon',\r\n        'population': 4224000,\r\n        'density': 404\r\n    },\r\n    {\r\n        'code': 'LS',\r\n        'value': 72,\r\n        'name': 'Lesotho',\r\n        'population': 2067000,\r\n        'density': 68\r\n    },\r\n    {\r\n        'code': 'LR',\r\n        'value': 41,\r\n        'name': 'Liberia',\r\n        'population': 3476608,\r\n        'density': 38\r\n    },\r\n    {\r\n        'code': 'LY',\r\n        'value': 4,\r\n        'name': 'Libya',\r\n        'population': 6420000,\r\n        'density': 3.6\r\n    },\r\n    {\r\n        'code': 'LT',\r\n        'value': 53,\r\n        'name': 'Lithuania',\r\n        'population': 3053800,\r\n        'density': 47\r\n    },\r\n    {\r\n        'code': 'LU',\r\n        'value': 195,\r\n        'name': 'Luxembourg',\r\n        'population': 502207,\r\n        'density': 194\r\n    },\r\n    {\r\n        'code': 'MK',\r\n        'value': 82,\r\n        'name': 'Macedonia',\r\n        'population': 2114550,\r\n        'density': 82\r\n    },\r\n    {\r\n        'code': 'MG',\r\n        'value': 36,\r\n        'name': 'Madagascar',\r\n        'population': 20653556,\r\n        'density': 35\r\n    },\r\n    {\r\n        'code': 'MW',\r\n        'value': 158,\r\n        'name': 'Malawi',\r\n        'population': 15263000,\r\n        'density': 129\r\n    },\r\n    {\r\n        'code': 'MY',\r\n        'value': 86,\r\n        'name': 'Malaysia',\r\n        'population': 28306700,\r\n        'density': 86\r\n    },\r\n    {\r\n        'code': 'ML',\r\n        'value': 13,\r\n        'name': 'Mali',\r\n        'population': 14517176,\r\n        'density': 12\r\n    },\r\n    {\r\n        'code': 'MR',\r\n        'value': 3,\r\n        'name': 'Mauritania',\r\n        'population': 3291000,\r\n        'density': 3.2\r\n    },\r\n    {\r\n        'code': 'MX',\r\n        'value': 58,\r\n        'name': 'Mexico',\r\n        'population': 107550697,\r\n        'density': 57\r\n    },\t\r\n    {\r\n        'code': 'MD',\r\n        'value': 124,\r\n        'name': 'Moldova',\r\n        'population': 3567500,\r\n        'density': 105\r\n    },\r\n    {\r\n        'code': 'MC',\r\n        'value': 17704,\r\n        'name': 'Monaco',\r\n        'population': 33000,\r\n        'density': 16923\r\n    },\r\n    {\r\n        'code': 'MN',\r\n        'value': 2,\r\n        'name': 'Mongolia',\r\n        'population': 2671000,\r\n        'density': 1.7\r\n    },\r\n    {\r\n        'code': 'ME',\r\n        'value': 47,\r\n        'name': 'Montenegro',\r\n        'population': 630548,\r\n        'density': 45\r\n    },\r\n    {\r\n        'code': 'MA',\r\n        'value': 72,\r\n        'name': 'Morocco',\r\n        'population': 34407605,\r\n        'density': 77\r\n    },\r\n    {\r\n        'code': 'MZ',\r\n        'value': 30,\r\n        'name': 'Mozambique',\r\n        'population': 22894000,\r\n        'density': 29\r\n    },\r\n    {\r\n        'code': 'MM',\r\n        'value': 73,\r\n        'name': 'Myanmar',\r\n        'population': 50020000,\r\n        'density': 74\r\n    },\r\n    {\r\n        'code': 'NA',\r\n        'value': 3,\r\n        'name': 'Namibia',\r\n        'population': 2171000,\r\n        'density': 2.6\r\n    },\r\n    {\r\n        'code': 'NP',\r\n        'value': 209,\r\n        'name': 'Nepal',\r\n        'population': 29331000,\r\n        'density': 109\r\n    },\r\n    {\r\n        'code': 'NL',\r\n        'value': 492,\r\n        'name': 'Netherlands',\r\n        'population': 17250000,\r\n        'density': 415\r\n    },\r\n    {\r\n        'code': 'NC',\r\n        'value': 14,\r\n        'name': 'New Caledonia',\r\n        'population': 244410,\r\n        'density': 13\r\n    },\r\n    {\r\n        'code': 'NZ',\r\n        'value': 17,\r\n        'name': 'New Zealand',\r\n        'population': 4315800,\r\n        'density': 16\r\n    },\r\n    {\r\n        'code': 'NI',\r\n        'value': 48,\r\n        'name': 'Nicaragua',\r\n        'population': 5743000,\r\n        'density': 44\r\n    },\r\n    {\r\n        'code': 'NE',\r\n        'value': 12,\r\n        'name': 'Niger',\r\n        'population': 15290000,\r\n        'density': 12\r\n    },\r\n    {\r\n        'code': 'NG',\r\n        'value': 174,\r\n        'name': 'Nigeria',\r\n        'population': 154729000,\r\n        'density': 167\r\n    },\r\n    {\r\n        'code': 'NO',\r\n        'value': 16,\r\n        'name': 'Norway',\r\n        'population': 5279970,\r\n        'density': 14\r\n    },\r\n    {\r\n        'code': 'OM',\r\n        'value': 9,\r\n        'name': 'Oman',\r\n        'population': 2845000,\r\n        'density': 9.2\r\n    },\r\n    {\r\n        'code': 'PK',\r\n        'value': 225,\r\n        'name': 'Pakistan',\r\n        'population': 193231420,\r\n        'density': 245\r\n    },\r\n    {\r\n        'code': 'PA',\r\n        'value': 47,\r\n        'name': 'Panama',\r\n        'population': 3454000,\r\n        'density': 46\r\n    },\r\n    {\r\n        'code': 'PG',\r\n        'value': 15,\r\n        'name': 'Papua New Guinea',\r\n        'population': 6732000,\r\n        'density': 15\r\n    },\r\n    {\r\n        'code': 'PY',\r\n        'value': 16,\r\n        'name': 'Paraguay',\r\n        'population': 6349000,\r\n        'density': 16\r\n    },\r\n    {\r\n        'code': 'PE',\r\n        'value': 23,\r\n        'name': 'Peru',\r\n        'population': 29461933,\r\n        'density': 23\r\n    },\r\n    {\r\n        'code': 'PH',\r\n        'value': 313,\r\n        'name': 'Philippines',\r\n        'population': 100981437,\r\n        'density': 337\r\n    },\r\n    {\r\n        'code': 'PL',\r\n        'value': 126,\r\n        'name': 'Poland',\r\n        'population': 38163895,\r\n        'density': 122\r\n    },\r\n    {\r\n        'code': 'PT',\r\n        'value': 116,\r\n        'name': 'Portugal',\r\n        'population': 10636888,\r\n        'density': 115\r\n    },\r\n    {\r\n        'code': 'PR',\r\n        'value': 449,\r\n        'name': 'Puerto Rico',\r\n        'population': 3982000,\r\n        'density': 449\r\n    },\r\n    {\r\n        'code': 'WA',\r\n        'value': 152,\r\n        'name': 'Qatar',\r\n        'population': 1409000,\r\n        'density': 128\r\n    },\r\n    {\r\n        'code': 'RO',\r\n        'value': 93,\r\n        'name': 'Romania',\r\n        'population': 21466174,\r\n        'density': 90\r\n    },\r\n    {\r\n        'code': 'RU',\r\n        'value': 9,\r\n        'name': 'Russia',\r\n        'population': 142905208,\r\n        'density': 8.3\r\n    },\r\n    {\r\n        'code': 'RW',\r\n        'value': 431,\r\n        'name': 'Rwanda',\r\n        'population': 9998000,\r\n        'density': 380\r\n    },\r\n    {\r\n        'code': 'SA',\r\n        'value': 14,\r\n        'name': 'Saudi Arabia',\r\n        'population': 28146658,\r\n        'density': 12\r\n    },\r\n    {\r\n        'code': 'SN',\r\n        'value': 65,\r\n        'name': 'Senegal',\r\n        'population': 12534000,\r\n        'density': 64\r\n    },\r\n    {\r\n        'code': 'RS',\r\n        'value': 83,\r\n        'name': 'Serbia',\r\n        'population': 7800000,\r\n        'density': 101\r\n    },\r\n    {\r\n        'code': 'SL',\r\n        'value': 82,\r\n        'name': 'Sierra Leone',\r\n        'population': 5696000,\r\n        'density': 79\r\n    },\r\n    {\r\n        'code': 'SK',\r\n        'value': 113,\r\n        'name': 'Slovakia',\r\n        'population': 5424057,\r\n        'density': 111\r\n    },\r\n    {\r\n        'code': 'SI',\r\n        'value': 102,\r\n        'name': 'Slovenia',\r\n        'population': 2192912,\r\n        'density': 108\r\n    },\r\n    {\r\n        'code': 'SB',\r\n        'value': 19,\r\n        'name': 'Solomon Is.',\r\n        'population': 523000,\r\n        'density': 18\r\n    },\r\n    {\r\n        'code': 'SO',\r\n        'value': 15,\r\n        'name': 'Somalia',\r\n        'population': 9133000,\r\n        'density': 14\r\n    },\r\n    {\r\n        'code': 'ZA',\r\n        'value': 41,\r\n        'name': 'South Africa',\r\n        'population': 50586757,\r\n        'density': 41\r\n    },\r\n    {\r\n        'code': 'SS',\r\n        'value': 13,\r\n        'name': 'S. Sudan',\r\n        'population': 8260490,\r\n        'density': 13\r\n    },\r\n    {\r\n        'code': 'ES',\r\n        'value': 92,\r\n        'name': 'Spain',\r\n        'population': 46087170,\r\n        'density': 91\r\n    },\r\n    {\r\n        'code': 'LK',\r\n        'value': 333,\r\n        'name': 'Sri Lanka',\r\n        'population': 20238000,\r\n        'density': 308\r\n    },\r\n    {\r\n        'code': 'SD',\r\n        'value': 16,\r\n        'name': 'Sudan',\r\n        'population': 31894000,\r\n        'density': 17\r\n    },\r\n    {\r\n        'code': 'SR',\r\n        'value': 3,\r\n        'name': 'Suriname',\r\n        'population': 520000,\r\n        'density': 3.2\r\n    },\r\n    {\r\n        'code': 'SZ',\r\n        'value': 69,\r\n        'name': 'Swaziland',\r\n        'population': 1185000,\r\n        'density': 68\r\n    },\r\n    {\r\n        'code': 'SE',\r\n        'value': 23,\r\n        'name': 'Sweden',\r\n        'population': 9366092,\r\n        'density': 21\r\n    },\r\n    {\r\n        'code': 'CH',\r\n        'value': 196,\r\n        'name': 'Switzerland',\r\n        'population': 7866500,\r\n        'density': 191\r\n    },\r\n    {\r\n        'code': 'SY',\r\n        'value': 111,\r\n        'name': 'Syria',\r\n        'population': 21906000,\r\n        'density': 118\r\n    },\r\n    {\r\n        'code': 'TJ',\r\n        'value': 49,\r\n        'name': 'Tajikistan',\r\n        'population': 6952000,\r\n        'density': 49\r\n    },\r\n    {\r\n        'code': 'TZ',\r\n        'value': 51,\r\n        'name': 'Tanzania',\r\n        'population': 43739000,\r\n        'density': 46\r\n    },\r\n    {\r\n        'code': 'TH',\r\n        'value': 135,\r\n        'name': 'Thailand',\r\n        'population': 64232760,\r\n        'density': 125\r\n    },\r\n    {\r\n        'code': 'TP',\r\n        'value': 76,\r\n        'name': 'Timor-Leste',\r\n        'population': 1134000,\r\n        'density': 76\r\n    },\r\n    {\r\n        'code': 'TG',\r\n        'value': 111,\r\n        'name': 'Togo',\r\n        'population': 6619000,\r\n        'density': 117\r\n    },\r\n    {\r\n        'code': 'TT',\r\n        'value': 261,\r\n        'name': 'Trinidad and Tobago',\r\n        'population': 1339000,\r\n        'density': 261\r\n    },\r\n    {\r\n        'code': 'TN',\r\n        'value': 68,\r\n        'name': 'Tunisia',\r\n        'population': 10327800,\r\n        'density': 63\r\n    },\r\n    {\r\n        'code': 'TR',\r\n        'value': 95,\r\n        'name': 'Turkey',\r\n        'population': 77804122,\r\n        'density': 93\r\n    },\r\n    {\r\n        'code': 'TM',\r\n        'value': 11,\r\n        'name': 'Turkmenistan',\r\n        'population': 5110000,\r\n        'density': 11\r\n    },\r\n    {\r\n        'code': 'UG',\r\n        'value': 170,\r\n        'name': 'Uganda',\r\n        'population': 32710000,\r\n        'density': 136\r\n    },\r\n    {\r\n        'code': 'UA',\r\n        'value': 79,\r\n        'name': 'Ukraine',\r\n        'population': 46936000,\r\n        'density': 78\r\n    },\r\n    {\r\n        'code': 'AE',\r\n        'value': 90,\r\n        'name': 'United Arab Emirates',\r\n        'population': 8264070,\r\n        'density': 99\r\n    },\r\n    {\r\n        'code': 'GB',\r\n        'value': 257,\r\n        'name': 'United Kingdom',\r\n        'population': 62041708,\r\n        'density': 255\r\n    },\r\n    {\r\n        'code': 'US',\r\n        'value': 34,\r\n        'name': 'United States',\r\n        'population': 325020000,\r\n        'density': 33\r\n    },\r\n    {\r\n        'code': 'UY',\r\n        'value': 19,\r\n        'name': 'Uruguay',\r\n        'population': 3463197,\r\n        'density': 20\r\n    },\r\n    {\r\n        'code': 'UZ',\r\n        'value': 66,\r\n        'name': 'Uzbekistan',\r\n        'population': 27488000,\r\n        'density': 61\r\n    },\r\n    {\r\n        'code': 'VU',\r\n        'value': 20,\r\n        'name': 'Vanuatu',\r\n        'population': 240000,\r\n        'density': 20\r\n    },\r\n    {\r\n        'code': 'VE',\r\n        'value': 33,\r\n        'name': 'Venezuela',\r\n        'population': 32240855,\r\n        'density': 35\r\n    },\r\n    {\r\n        'code': 'VN',\r\n        'value': 280,\r\n        'name': 'Vietnam',\r\n        'population': 85789573,\r\n        'density': 259\r\n    },\r\n    {\r\n        'code': 'EH',\r\n        'value': 2,\r\n        'name': 'W. Sahara',\r\n        'population': 513000,\r\n        'density': 1.9\r\n    },\r\n    {\r\n        'code': 'YE',\r\n        'value': 46,\r\n        'name': 'Yemen',\r\n        'population': 23580000,\r\n        'density': 45\r\n    },\r\n    {\r\n        'code': 'ZM',\r\n        'value': 17,\r\n        'name': 'Zambia',\r\n        'population': 12935000,\r\n        'density': 17\r\n    },\r\n    {\r\n        'code': 'ZW',\r\n        'value': 32,\r\n        'name': 'Zimbabwe',\r\n        'population': 13009530,\r\n        'density': 33\r\n    }\r\n];   \r\n\r\nwindow.marklerLocation = [ {\r\n    'title': '',\r\n    'latitude': 40.641189,\r\n    'longitude': -73.778257\r\n  }, {\r\n    'title': 'Dubai',\r\n    'latitude':  25.255256,\r\n    'longitude':  55.359109\r\n  }, {\r\n    'title': '',\r\n    'latitude':  53.347198,\r\n    'longitude': -6.285535\r\n  }, {\r\n    'title': 'Hong Kong',\r\n    'latitude':  22.273587,\r\n    'longitude':  114.203379\r\n  }, {\r\n    'title': 'Frankfurt',\r\n    'latitude': 50.096467,\r\n    'longitude':  8.68119\r\n  }, {\r\n    'title': 'Amsterdam',\r\n    'latitude':  52.383331,\r\n    'longitude':  4.891055\r\n  }, {\r\n    'title': 'Los Angeles',\r\n    'latitude':34.027009,\r\n    'longitude':-118.24285\r\n  }, {\r\n    'title': '',\r\n    'latitude':  40.404937,\r\n    'longitude': -3.701517\r\n  }, {\r\n    'title': '',\r\n    'latitude':   49.009564,\r\n    'longitude': 2.548128\r\n  }, {\r\n    'title': '',\r\n    'latitude': 48.124125,\r\n    'longitude': 11.578222\r\n  }, {\r\n    'title': 'Newark',\r\n    'latitude': 40.730539,\r\n    'longitude':-74.173517\r\n  }, {\r\n    'title': '',\r\n    'latitude':  41.974521,\r\n    'longitude': -87.90701\r\n  }, {\r\n    'title': 'Singapore',\r\n    'latitude':  1.320207,\r\n    'longitude': 103.852473\r\n  }, {\r\n    'title': '',\r\n    'latitude': 28.582462,\r\n    'longitude':77.186854\r\n  }, {\r\n    'title': 'New Delhi',\r\n    'latitude':  19.06208,\r\n    'longitude': 72.872955\r\n  }, {\r\n    'title': 'Zürich',\r\n    'latitude': 47.371389,\r\n    \r\n    'longitude': 8.53946\r\n  }, {\r\n    'title': 'Toronto Pearson',\r\n    'latitude':  43.677593,\r\n    \r\n    'longitude': -79.624852\r\n  }, {\r\n    'title': 'Geneva',\r\n    'latitude': 46.201103,\r\n    \r\n    'longitude': 6.143916\r\n  }, {\r\n    'title': 'Miami',\r\n    'latitude': 25.753244,\r\n    'longitude': -80.200183\r\n  }, {\r\n    'title': '',\r\n    'latitude':  25.289708,\r\n    'longitude':  51.541816\r\n  },  {\r\n    'title': '',\r\n    'latitude':  55.681701,\r\n    'longitude': 12.246163\r\n  }, {\r\n    'title': '',\r\n    'latitude':  41.799703,\r\n    'longitude': 12.246163\r\n  }, {\r\n    'title': 'San Francisco',\r\n    'latitude':  37.782376,\r\n    'longitude': -122.425586\r\n  }, {\r\n    'title': '',\r\n    'latitude':     59.649643,\r\n    'longitude':   17.923738\r\n  }, {\r\n    'title': 'Johannesburg Tambo',\r\n    'latitude': -26.136894,\r\n    'longitude':  28.241114\r\n  }, {\r\n    'title': '',\r\n    'latitude':40.982819,\r\n    'longitude':  28.810421\r\n  }, {\r\n    'title': '',\r\n    'latitude':  24.28744,\r\n    'longitude': 54.743893\r\n  }, {\r\n    'title': 'Boston',\r\n    'latitude': 42.345268,\r\n    'longitude': -71.070897\r\n  }, {\r\n    'title': 'Washington Dulles\"',\r\n    'latitude': 38.952858,\r\n    'longitude': -77.456614\r\n  }, {\r\n    'title': '',\r\n    'latitude': 48.208,\r\n    'longitude':  16.391727\r\n  }, {\r\n    'title': 'Lisbon',\r\n    'latitude':  38.71843,\r\n    'longitude': -9.125187\r\n  }, {\r\n    'title': 'Dallas Fort Worth',\r\n    'latitude':  32.899287,\r\n    'longitude': -97.040389\r\n  }, {\r\n    'title': '',\r\n    'latitude':   60.197438,\r\n    'longitude': 11.100287\r\n  }, {\r\n    'title': '',\r\n    'latitude':  45.452025,\r\n    'longitude':  9.276244\r\n  }, {\r\n    'title': 'Athens',\r\n    'latitude': 37.980549,\r\n    'longitude': 23.72735\r\n  }, {\r\n    'title': '',\r\n    'latitude':  52.55865,\r\n    'longitude': 13.288513\r\n  }, {\r\n    'title': 'Helsinki',\r\n    'latitude':   60.167065,\r\n    'longitude':  24.9379\r\n  }, {\r\n    'title': '',\r\n    'latitude': 51.21515,\r\n    'longitude': 6.775206\r\n  }, {\r\n    'title': 'Barcelona',\r\n    'latitude':  41.377768,\r\n    'longitude':  2.172799\r\n  }, {\r\n    'title': '',\r\n    'latitude':  29.989811,\r\n    'longitude': -95.336836\r\n  }, {\r\n    'title': 'Edinburgh',\r\n    'latitude': 55.949056,\r\n    'longitude': -3.189596\r\n  }, {\r\n    'title': 'Manchester',\r\n    'latitude':  53.478805,\r\n    \r\n    'longitude': -2.243742\r\n  }, {\r\n    'title': '',\r\n    'latitude': 55.868966,\r\n    'longitude':-4.435128\r\n  },\r\n  {\r\n    'title': 'Aberdeen',\r\n    'latitude': 57.149315,\r\n    'longitude': -2.093963\r\n  }, {\r\n    'title': '',\r\n    'latitude':  54.597209,\r\n    'longitude': -1.617285\r\n  }, {\r\n    'title': '',\r\n    'latitude':  54.972206,\r\n    'longitude': -1.617285\r\n  }, {\r\n    'title': '',\r\n    'latitude':   53.867956,\r\n    \r\n    'longitude': -1.661885\r\n  },\r\n  {\r\n    'title': '',\r\n    'latitude':    28.582462,\r\n    \r\n    'longitude':  77.186854\r\n  }];\r\nwindow.navigationData  = [\r\n    {\r\n        dashArray: '5,1',\r\n        visible: true,       \r\n        angle: -0.2,\r\n        color: 'black',\r\n        latitude: [28.6139391, 39.9041999],\r\n        longitude: [77.2090212, 116.4073963],\r\n        \r\n    },\r\n    {\r\n        dashArray: '5,1',\r\n        visible: true,       \r\n        angle: -0.2,\r\n        color: 'black',\r\n        latitude: [28.6139391, 31.2303904],\r\n        longitude: [77.2090212, 121.4737021],\r\n        \r\n    },\r\n    {\r\n        dashArray: '5,1',\r\n        visible: true,       \r\n        angle: -0.2,\r\n        color: 'black',\r\n        latitude: [28.6139391, 23.12911],\r\n        longitude: [77.2090212, 113.264385],\r\n        \r\n    },\r\n    {\r\n        dashArray: '5,1',\r\n        visible: true,       \r\n        angle: -0.4,\r\n        color: 'black',\r\n        latitude: [28.6139391, 22.396428],\r\n        longitude: [77.2090212, 114.109497],\r\n        \r\n    },\r\n    {\r\n        dashArray: '5,1',\r\n        visible: true,       \r\n        angle: -0.2,\r\n        color: 'black',\r\n        latitude: [19.0759837, 23.12911],\r\n        longitude: [72.8776559, 113.264385],\r\n        \r\n    },\r\n    {\r\n        dashArray: '5,1',\r\n        visible: true,       \r\n        angle: -0.2,\r\n        color: 'black',\r\n        latitude: [13.0826802, 22.396428],\r\n        longitude: [80.2707184, 114.109497],\r\n        \r\n    },\r\n    {\r\n        dashArray: '5,1',\r\n        visible: true,       \r\n        angle: -0.2,\r\n        color: 'black',\r\n        latitude: [22.572646, 24.880095],\r\n        longitude: [88.363895, 102.832891],        \r\n    }\r\n];\r\n\r\n\r\nwindow.bubblePopulation = [\r\n    {name: \"Afghanistan\", value: 5.596768894882089, color: \"#eea638\"},\r\n    {name: \"Albania\", value: 5.580660645705788, color: \"#d8854f\"},\r\n    {name: \"Algeria\", value: 5.8831175926918515, color: \"#de4c4f\"},\r\n    {name: \"Angola\", value: 4.445358242038883, color: \"#de4c4f\"},\r\n    {name: \"Argentina\", value: 6.241261417142413, color: \"#86a965\"},\r\n    {name: \"Armenia\", value: 2.1838881539602077, color: \"#d8854f\"},\r\n    {name: \"Australia\", value: 4.740513718171703, color: \"#8aabb0\"},\r\n    {name: \"Austria\", value: 3.0970305444639443, color: \"#d8854f\"},\r\n    {name: \"Azerbaijan\", value: 3.2251686162287068, color: \"#d8854f\"},\r\n    {name: \"Bangladesh\", value: 11.770428730780932, color: \"#eea638\"},\r\n    {name: \"Belarus\", value: 3.2606308701437228, color: \"#d8854f\"},\r\n    {name: \"Belgium\", value: 3.4228556819581013, color: \"#d8854f\"},\r\n    {name: \"Benin\", value: 3.196037583804613, color: \"#de4c4f\"},\r\n    {name: \"Bhutan\", value: 1.6203872182283114, color: \"#eea638\"},\r\n    {name: \"Bolivia\", value: 3.3333960952593285, color: \"#86a965\"},\r\n    {name: \"Botswana\", value: 1.9490243104453726, color: \"#de4c4f\"},\r\n    {name: \"Brazil\", value: 13.432752408943974, color: \"#86a965\"},\r\n    {name: \"Brunei\", value: 1.5244783994418503, color: \"#eea638\"},\r\n    {name: \"Bulgaria\", value: 2.951895389466309, color: \"#d8854f\"},\r\n    {name: \"Burkina Faso\", value: 4.165999127917231, color: \"#de4c4f\"},\r\n    {name: \"Burundi\", value: 3.1206402279982317, color: \"#de4c4f\"},\r\n    {name: \"Cambodia\", value: 3.8650909886279634, color: \"#eea638\"},\r\n    {name: \"Cameroon\", value: 4.487212471689168, color: \"#de4c4f\"},\r\n    {name: \"Canada\", value: 5.755963702058073, color: \"#a7a737\"},\r\n    {name: \"Central African Rep.\", value: 2.455166078078455, color: \"#de4c4f\"},\r\n    {name: \"Chad\", value: 3.52364819311786, color: \"#de4c4f\"},\r\n    {name: \"Chile\", value: 4.198732211288726, color: \"#86a965\"},\r\n    {name: \"China\", value: 35, color: \"#eea638\"},\r\n    {name: \"Colombia\", value: 6.674313463232576, color: \"#86a965\"},\r\n    {name: \"Costa Rica\", value: 2.4990849587434334, color: \"#a7a737\"},\r\n    {name: \"Croatia\", value: 2.438236630238481, color: \"#d8854f\"},\r\n    {name: \"Cuba\", value: 3.4884644132314833, color: \"#a7a737\"},\r\n    {name: \"Cyprus\", value: 1.7230773167053226, color: \"#d8854f\"},\r\n    {name: \"Czech Rep.\", value: 3.3935947138782003, color: \"#d8854f\"},\r\n    {name: \"Denmark\", value: 2.648257686578689, color: \"#d8854f\"},\r\n    {name: \"Djibouti\", value: 1.666581159847919, color: \"#de4c4f\"},\r\n    {name: \"Dominican Rep.\", value: 3.3290468188888864, color: \"#a7a737\"},\r\n    {name: \"Ecuador\", value: 3.9072310142791866, color: \"#86a965\"},\r\n    {name: \"Egypt\", value: 8.767303931868126, color: \"#de4c4f\"},\r\n    {name: \"El Salvador\", value: 2.758196952157011, color: \"#a7a737\"},\r\n    {name: \"Eritrea\", value: 2.621162199538653, color: \"#de4c4f\"},\r\n    {name: \"Estonia\", value: 1.7810874078434904, color: \"#d8854f\"},\r\n    {name: \"Ethiopia\", value: 8.880318257813846, color: \"#de4c4f\"},\r\n    {name: \"Fiji\", value: 1.6564324085537034, color: \"#8aabb0\"},\r\n    {name: \"Finland\", value: 2.615874716754559, color: \"#d8854f\"},\r\n    {name: \"France\", value: 7.697297713397245, color: \"#d8854f\"},\r\n    {name: \"Gabon\", value: 1.8297804012865022, color: \"#de4c4f\"},\r\n    {name: \"Gambia\", value: 1.8888065413385209, color: \"#de4c4f\"},\r\n    {name: \"Georgia\", value: 2.425821901477613, color: \"#d8854f\"},\r\n    {name: \"Germany\", value: 8.74791079687802, color: \"#d8854f\"},\r\n    {name: \"Ghana\", value: 4.9612974337798015, color: \"#de4c4f\"},\r\n    {name: \"Greece\", value: 3.5061587453296967, color: \"#d8854f\"},\r\n    {name: \"Guatemala\", value: 3.9178160093763457, color: \"#a7a737\"},\r\n    {name: \"Guinea\", value: 3.3515481591380945, color: \"#de4c4f\"},\r\n    {name: \"Guinea-Bissau\", value: 1.832951890624302, color: \"#de4c4f\"},\r\n    {name: \"Guyana\", value: 1.6253570174118745, color: \"#86a965\"},\r\n    {name: \"Haiti\", value: 3.3382497857729296, color: \"#a7a737\"},\r\n    {name: \"Honduras\", value: 2.9989542903814663, color: \"#a7a737\"},\r\n    {name: \"Hungary\", value: 3.3167469186451206, color: \"#d8854f\"},\r\n    {name: \"Iceland\", value: 1.5, color: \"#d8854f\"},\r\n    {name: \"India\", value: 33.5965515916378, color: \"#eea638\"},\r\n    {name: \"Indonesia\", value: 14.895948974036031, color: \"#eea638\"},\r\n    {name: \"Iran\", value: 8.35718182670672, color: \"#eea638\"},\r\n    {name: \"Iraq\", value: 5.621580320901313, color: \"#eea638\"},\r\n    {name: \"Ireland\", value: 2.462357596795288, color: \"#d8854f\"},\r\n    {name: \"Israel\", value: 2.969683658414561, color: \"#eea638\"},\r\n    {name: \"Italy\", value: 7.558251093520834, color: \"#d8854f\"},\r\n    {name: \"Jamaica\", value: 2.1101303696075155, color: \"#a7a737\"},\r\n    {name: \"Japan\", value: 10.805736874877075, color: \"#eea638\"},\r\n    {name: \"Jordan\", value: 2.7750388340571384, color: \"#eea638\"},\r\n    {name: \"Kazakhstan\", value: 4.08225210407236, color: \"#eea638\"},\r\n    {name: \"Kenya\", value: 6.302413343247411, color: \"#de4c4f\"},\r\n    {name: \"Kuwait\", value: 2.124440968598607, color: \"#eea638\"},\r\n    {name: \"Kyrgyzstan\", value: 2.61722923252646, color: \"#eea638\"},\r\n    {name: \"Latvia\", value: 1.9978670386063402, color: \"#d8854f\"},\r\n    {name: \"Lebanon\", value: 2.412762769657275, color: \"#eea638\"},\r\n    {name: \"Lesotho\", value: 1.9866376486937007, color: \"#de4c4f\"},\r\n    {name: \"Liberia\", value: 2.3880286271673543, color: \"#de4c4f\"},\r\n    {name: \"Libya\", value: 2.7901409656565885, color: \"#de4c4f\"},\r\n    {name: \"Lithuania\", value: 2.2265359023420843, color: \"#d8854f\"},\r\n    {name: \"Luxembourg\", value: 1.5568791320968642, color: \"#d8854f\"},\r\n    {name: \"Madagascar\", value: 4.615314736902236, color: \"#de4c4f\"},\r\n    {name: \"Malawi\", value: 3.989390116637046, color: \"#de4c4f\"},\r\n    {name: \"Malaysia\", value: 5.305473472169524, color: \"#eea638\"},\r\n    {name: \"Mali\", value: 4.04122533847908, color: \"#de4c4f\"},\r\n    {name: \"Mauritania\", value: 2.2737398815457075, color: \"#de4c4f\"},\r\n    {name: \"Mexico\", value: 10.302501684910007, color: \"#a7a737\"},\r\n    {name: \"Moldova\", value: 2.2744031957396458, color: \"#d8854f\"},\r\n    {name: \"Mongolia\", value: 2.1206079445965242, color: \"#eea638\"},\r\n    {name: \"Montenegro\", value: 1.5904226341193035, color: \"#d8854f\"},\r\n    {name: \"Morocco\", value: 5.589849448974608, color: \"#de4c4f\"},\r\n    {name: \"Mozambique\", value: 4.86560429320608, color: \"#de4c4f\"},\r\n    {name: \"Myanmar\", value: 6.769478671792393, color: \"#eea638\"},\r\n    {name: \"Namibia\", value: 2.016150465967343, color: \"#de4c4f\"},\r\n    {name: \"Nepal\", value: 5.442828652692484, color: \"#eea638\"},\r\n    {name: \"Netherlands\", value: 4.132851002311615, color: \"#d8854f\"},\r\n    {name: \"New Zealand\", value: 2.441760818455536, color: \"#8aabb0\"},\r\n    {name: \"Nicaragua\", value: 2.698715470023254, color: \"#a7a737\"},\r\n    {name: \"Niger\", value: 4.066909821746027, color: \"#de4c4f\"},\r\n    {name: \"Nigeria\", value: 12.223474833830245, color: \"#de4c4f\"},\r\n    {name: \"Norway\", value: 2.534832802864141, color: \"#d8854f\"},\r\n    {name: \"Oman\", value: 2.1304355397251826, color: \"#eea638\"},\r\n    {name: \"Pakistan\", value: 12.742406602929762, color: \"#eea638\"},\r\n    {name: \"Panama\", value: 2.279648815333182, color: \"#a7a737\"},\r\n    {name: \"Papua New Guinea\", value: 2.8846711001199257, color: \"#8aabb0\"},\r\n    {name: \"Paraguay\", value: 2.813708959446457, color: \"#86a965\"},\r\n    {name: \"Peru\", value: 5.351518675812894, color: \"#86a965\"},\r\n    {name: \"Philippines\", value: 9.383117516948824, color: \"#eea638\"},\r\n    {name: \"Poland\", value: 6.059337043908755, color: \"#d8854f\"},\r\n    {name: \"Portugal\", value: 3.414307867547807, color: \"#d8854f\"},\r\n    {name: \"Puerto Rico\", value: 2.3140937427421737, color: \"#a7a737\"},\r\n    {name: \"Qatar\", value: 1.911242493372605, color: \"#eea638\"},\r\n    {name: \"Romania\", value: 4.627231993944097, color: \"#d8854f\"},\r\n    {name: \"Russia\", value: 11.471378806570026, color: \"#d8854f\"},\r\n    {name: \"Rwanda\", value: 3.447808055504182, color: \"#de4c4f\"},\r\n    {name: \"Saudi Arabia\", value: 5.238625602424155, color: \"#eea638\"},\r\n    {name: \"Senegal\", value: 3.680133803477005, color: \"#de4c4f\"},\r\n    {name: \"Serbia\", value: 3.3013672918545267, color: \"#d8854f\"},\r\n    {name: \"Sierra Leone\", value: 2.720091707101227, color: \"#de4c4f\"},\r\n    {name: \"Slovenia\", value: 1.9500191861647223, color: \"#d8854f\"},\r\n    {name: \"Somalia\", value: 3.2602734495388392, color: \"#de4c4f\"},\r\n    {name: \"South Africa\", value: 6.910344574179143, color: \"#de4c4f\"},\r\n    {name: \"Spain\", value: 6.642128147156532, color: \"#d8854f\"},\r\n    {name: \"Sri Lanka\", value: 4.588715982608207, color: \"#eea638\"},\r\n    {name: \"Sudan\", value: 5.786294347616132, color: \"#de4c4f\"},\r\n    {name: \"Suriname\", value: 1.5608027440389196, color: \"#86a965\"},\r\n    {name: \"Swaziland\", value: 1.7457788752840788, color: \"#de4c4f\"},\r\n    {name: \"Sweden\", value: 3.2440695917564613, color: \"#d8854f\"},\r\n    {name: \"Switzerland\", value: 2.9909241030878406, color: \"#d8854f\"},\r\n    {name: \"Syria\", value: 4.561005500751568, color: \"#eea638\"},\r\n    {name: \"Taiwan\", value: 4.784940240932306, color: \"#eea638\"},\r\n    {name: \"Tajikistan\", value: 2.87886494951719, color: \"#eea638\"},\r\n    {name: \"Tanzania\", value: 6.625956727070883, color: \"#de4c4f\"},\r\n    {name: \"Thailand\", value: 8.06537929967912, color: \"#eea638\"},\r\n    {name: \"Togo\", value: 2.7462134279798427, color: \"#de4c4f\"},\r\n    {name: \"Trinidad and Tobago\", value: 1.782567869044481, color: \"#a7a737\"},\r\n    {name: \"Tunisia\", value: 3.4015770793891384, color: \"#de4c4f\"},\r\n    {name: \"Turkey\", value: 8.294008803460144, color: \"#d8854f\"},\r\n    {name: \"Turkmenistan\", value: 2.5669350774586697, color: \"#eea638\"},\r\n    {name: \"Uganda\", value: 5.768536238548765, color: \"#de4c4f\"},\r\n    {name: \"Ukraine\", value: 6.5551519068379775, color: \"#d8854f\"},\r\n    {name: \"United Arab Emirates\", value: 3.0194991208859707, color: \"#eea638\"},\r\n    {name: \"United Kingdom\", value: 7.655416002349502, color: \"#d8854f\"},\r\n    {name: \"United States\", value: 16.91480204256304, color: \"#a7a737\"},\r\n    {name: \"Uruguay\", value: 2.241269129834758, color: \"#86a965\"},\r\n    {name: \"Uzbekistan\", value: 5.210633716713882, color: \"#eea638\"},\r\n    {name: \"Venezuela\", value: 5.354661552123968, color: \"#86a965\"},\r\n    {name: \"Vietnam\", value: 9.085308689746274, color: \"#eea638\"},\r\n    {name: \"Zambia\", value: 3.7663537645543483, color: \"#de4c4f\"},\r\n    {name: \"Zimbabwe\", value: 3.678508463540766, color: \"#de4c4f\"}\r\n];\r\nwindow.penisular_location = [\r\n    {\r\n        visible: true,\r\n        latitude: [22.403410892712124, 29.756032197482973],\r\n        longitude: [-97.8717041015625, -95.36270141601562],\r\n        angle: 0,\r\n        dashArray: 1,\r\n        color: 'white',\r\n    },\r\n    {\r\n        visible: true,\r\n        angle: 0,\r\n        color: 'white',\r\n        dashArray: 1,\r\n        latitude: [22.403410892712124, 30.180747605060766 ],\r\n        longitude: [-97.8717041015625, -85.81283569335938]\r\n    },\r\n    {\r\n        dashArray: 1,\r\n        visible: true,\r\n        angle: 0,\r\n        color: 'white',\r\n        latitude: [22.403410892712124, 27.9337540167772],\r\n        longitude: [-97.8717041015625, -82.49908447265625]\r\n    },\r\n    {\r\n        dashArray: 1,\r\n        visible: true,\r\n        angle: 0,\r\n        color: 'white',\r\n        latitude: [22.403410892712124, 21.282336521195344],\r\n        longitude: [-97.8717041015625, -89.6649169921875]\r\n    },\r\n    {\r\n        dashArray: 1,\r\n        visible: true,\r\n        angle: 0,\r\n        color: 'white',\r\n        latitude: [29.756032197482973, 21.282336521195344],\r\n        longitude: [-95.36270141601562, -89.6649169921875]\r\n    },\r\n    {\r\n        dashArray: 1,\r\n        visible: true,\r\n        angle: 0,\r\n        color: 'white',\r\n        latitude: [30.180747605060766, 21.282336521195344],\r\n        longitude: [-85.81283569335938, -89.6649169921875]\r\n    },\r\n    {\r\n        dashArray: 1,\r\n        visible: true,\r\n        angle: 0,\r\n        color: 'white',\r\n        latitude: [27.9337540167772, 21.282336521195344],\r\n        longitude: [-82.49908447265625, -89.6649169921875]\r\n    }\r\n];\r\nwindow.penisular_marker = [\r\n    {\r\n        latitude: 22.403410892712124,\r\n        longitude: -97.8717041015625\r\n    },\r\n    {\r\n        latitude: 29.756032197482973,\r\n        longitude: -95.36270141601562\r\n    },\r\n    {\r\n        latitude: 30.180747605060766,\r\n        longitude: -85.81283569335938\r\n    },\r\n    {\r\n        latitude: 27.9337540167772,\r\n        longitude: -82.49908447265625\r\n    },\r\n    {\r\n        latitude: 21.282336521195344,\r\n        longitude: -89.6649169921875\r\n    }\r\n];\r\n\r\nfunction bubblesize(value){\r\n     max = 1347565324;\r\n     min = 324366;\r\n     maxBox = 70 * 70 * 2 * Math.PI;\r\n     minBox = 3 * 3 * 2 * Math.PI;\r\n     box = (value - min) / (max - min) * (maxBox - minBox) + minBox;\r\n    if (box < minBox) {\r\n         box = minBox;\r\n    }\r\n    return Math.sqrt(box / (Math.PI * 2)) / 2;\r\n}","src/maps/map-data/africa-continent.json":"{\"type\":\"GeometryCollection\", \"geometries\": [\r\n    {\"type\":\"MultiPolygon\",\"coordinates\":[[[[34.21665954589844,31.32332992553711],[34.72334289550781,30.089344024658203],[34.90380096435547,29.486705780029297],[34.761383056640625,29.334720611572266],[34.622493743896484,28.839303970336914],[34.6274299621582,28.735414505004883],[34.40916061401367,28.318748474121094],[34.45166015625,28.174165725708008],[34.43110656738281,27.974441528320312],[34.258888244628906,27.79027557373047],[34.13416290283203,27.79582977294922],[33.763328552246094,28.021942138671875],[33.56339645385742,28.294721603393555],[33.43388366699219,28.36083221435547],[33.242774963378906,28.554443359375],[33.16777038574219,28.86111068725586],[33.17256164550781,28.995067596435547],[32.890830993652344,29.233190536499023],[32.74138641357422,29.45471954345703],[32.694366455078125,29.72347068786621],[32.56325149536133,29.95684051513672],[32.36083221435547,29.683053970336914],[32.368255615234375,29.544511795043945],[32.56721878051758,29.382497787475586],[32.662635803222656,29.093677520751953],[32.61874771118164,28.984025955200195],[32.81999969482422,28.74805450439453],[32.86083221435547,28.626388549804688],[33.12610626220703,28.28360939025879],[33.55888366699219,27.883052825927734],[33.4747200012207,27.827497482299805],[33.494720458984375,27.64388656616211],[33.63304901123047,27.48999786376953],[33.68888473510742,27.340553283691406],[33.8287467956543,27.255413055419922],[33.835689544677734,27.11763572692871],[33.9434700012207,26.935693740844727],[33.93235778808594,26.68416404724121],[34.074440002441406,26.51166534423828],[34.22277069091797,26.202774047851562],[34.43804931640625,25.84527587890625],[34.55048370361328,25.72471809387207],[34.77082824707031,25.284442901611328],[35.08832931518555,24.71819305419922],[35.13861083984375,24.517498016357422],[35.38304901123047,24.29055404663086],[35.483604431152344,24.14999771118164],[35.75902557373047,23.982498168945312],[35.48583221435547,23.942914962768555],[35.51423263549805,23.72006607055664],[35.49187088012695,23.49458122253418],[35.668888092041016,22.970693588256836],[35.84485626220703,22.763748168945312],[36.153053283691406,22.665136337280273],[36.27527618408203,22.58916473388672],[36.465553283691406,22.31833267211914],[36.54568862915039,22.299304962158203],[36.86277770996094,22.07583236694336],[36.899993896484375,21.637218475341797],[37.09888458251953,21.291664123535156],[37.093814849853516,21.16909408569336],[37.17138671875,20.699581146240234],[37.228187561035156,20.556386947631836],[37.184715270996094,20.40194320678711],[37.185829162597656,20.013469696044922],[37.25721740722656,19.833885192871094],[37.24159240722656,19.5645809173584],[37.29027557373047,19.474998474121094],[37.336387634277344,19.15194320678711],[37.43568801879883,18.8538875579834],[37.516387939453125,18.724441528320312],[37.75054931640625,18.70638656616211],[37.95027160644531,18.540693283081055],[38.18950653076172,18.24083137512207],[38.58902359008789,18.066802978515625],[38.6119384765625,17.961387634277344],[38.79777526855469,17.653331756591797],[38.945274353027344,17.348052978515625],[39.16027069091797,16.67916488647461],[39.22943878173828,16.127498626708984],[39.30916213989258,15.898332595825195],[39.423606872558594,15.769721984863281],[39.460201263427734,15.521735191345215],[39.7711067199707,15.392221450805664],[39.881385803222656,15.489442825317383],[39.989715576171875,15.389444351196289],[40.02582931518555,15.239860534667969],[40.175411224365234,14.971110343933105],[40.29784393310547,14.91353988647461],[40.454856872558594,15.007776260375977],[40.67388153076172,14.904165267944336],[40.807220458984375,14.705554962158203],[41.172218322753906,14.630693435668945],[41.6119384765625,14.067777633666992],[41.67721939086914,13.93638801574707],[41.95652389526367,13.857221603393555],[42.1865234375,13.575138092041016],[42.28458023071289,13.573471069335938],[42.37381362915039,13.217915534973145],[42.57527160644531,13.161943435668945],[42.72166061401367,13.042221069335938],[42.804718017578125,12.844999313354492],[43.077980041503906,12.828956604003906],[43.15068817138672,12.65847110748291],[43.3295783996582,12.43388843536377],[43.410133361816406,12.234651565551758],[43.37090301513672,11.993263244628906],[43.19444274902344,11.948055267333984],[43.04763412475586,11.800137519836426],[42.77256393432617,11.731179237365723],[42.69068908691406,11.540138244628906],[42.94749450683594,11.585277557373047],[43.15721893310547,11.570833206176758],[43.454856872558594,11.351387977600098],[43.501800537109375,11.210832595825195],[43.81388854980469,10.813888549804688],[44.27832794189453,10.447776794433594],[44.55659103393555,10.410762786865234],[44.72235870361328,10.458332061767578],[44.99291229248047,10.434999465942383],[45.331661224365234,10.666665077209473],[45.44923400878906,10.66353988647461],[45.75888442993164,10.872984886169434],[45.974159240722656,10.793333053588867],[46.24666213989258,10.786178588867188],[46.453330993652344,10.6899995803833],[46.646244049072266,10.744998931884766],[47.054718017578125,10.969165802001953],[47.1649284362793,11.06895637512207],[47.396663665771484,11.178956985473633],[47.664302825927734,11.10777759552002],[48.12569046020508,11.135137557983398],[48.3427734375,11.274304389953613],[48.66069030761719,11.328055381774902],[48.88068771362305,11.247916221618652],[49.0141487121582,11.250277519226074],[49.424163818359375,11.340832710266113],[49.560340881347656,11.44798469543457],[49.78472137451172,11.453054428100586],[50.09318923950195,11.514582633972168],[50.436248779296875,11.6834716796875],[50.53346633911133,11.860137939453125],[50.769439697265625,11.979166030883789],[51.27277374267578,11.839444160461426],[51.2385368347168,11.665346145629883],[51.125274658203125,11.507637023925781],[51.0831184387207,11.181248664855957],[51.14555358886719,10.633609771728516],[51.18943786621094,10.538055419921875],[51.376800537109375,10.487637519836426],[50.89582824707031,10.31222152709961],[50.89916229248047,10.022777557373047],[50.80249786376953,9.57472038269043],[50.838539123535156,9.437870979309082],[50.642635345458984,9.180831909179688],[50.63346862792969,9.067776679992676],[50.47930145263672,8.942776679992676],[50.32221603393555,8.61361026763916],[50.310691833496094,8.514998435974121],[50.148746490478516,8.304999351501465],[50.069091796875,8.138887405395508],[49.922218322753906,8.047222137451172],[49.80638885498047,7.882777214050293],[49.79582977294922,7.714444160461426],[49.589996337890625,7.316944122314453],[49.378883361816406,7.041388511657715],[49.219444274902344,6.758333206176758],[49.07194137573242,6.3890275955200195],[49.04083251953125,6.149722099304199],[48.66832733154297,5.5286102294921875],[48.20166015625,4.903055191040039],[48.000553131103516,4.523055076599121],[47.59693908691406,4.0799994468688965],[47.44805145263672,3.878471851348877],[47.22972106933594,3.682499885559082],[46.763885498046875,3.1599998474121094],[46.358055114746094,2.7911109924316406],[46.11054992675781,2.516110897064209],[45.8941650390625,2.3461108207702637],[45.367774963378906,2.0386109352111816],[45.00416564941406,1.8608331680297852],[44.54499435424805,1.5519442558288574],[44.144996643066406,1.219722032546997],[43.94582748413086,1.019027590751648],[43.79013442993164,0.9237499237060547],[43.488609313964844,0.6499987840652466],[42.80944061279297,-0.09166666865348816],[42.568885803222656,-0.30847224593162537],[42.17694091796875,-0.7980556488037109],[41.97277069091797,-1.020277976989746],[41.64582824707031,-1.5688890218734741],[41.315277099609375,-1.9580557346343994],[40.89166259765625,-2.019166946411133],[40.88999938964844,-2.2258334159851074],[40.813743591308594,-2.400416851043701],[40.6304817199707,-2.552847385406494],[40.38221740722656,-2.5688891410827637],[40.231109619140625,-2.6711113452911377],[40.17138671875,-2.7800002098083496],[40.17749786376953,-2.983055591583252],[40.1077766418457,-3.292083501815796],[39.974159240722656,-3.375833511352539],[39.836387634277344,-3.79888916015625],[39.671661376953125,-4.092223167419434],[39.402496337890625,-4.633889198303223],[39.255828857421875,-4.611945152282715],[39.220550537109375,-4.848611831665039],[39.13374710083008,-4.9537506103515625],[39.07804870605469,-5.243889808654785],[38.85944366455078,-5.770000457763672],[38.77610778808594,-6.039722919464111],[38.845272064208984,-6.323055744171143],[38.92263412475586,-6.446667194366455],[39.14221954345703,-6.570555686950684],[39.30499267578125,-6.816389083862305],[39.46402359008789,-6.860694885253906],[39.54027557373047,-7.082777976989746],[39.37499237060547,-7.291111946105957],[39.274436950683594,-7.579167366027832],[39.34235763549805,-7.740278244018555],[39.44666290283203,-7.814167022705078],[39.44554901123047,-8],[39.305274963378906,-8.296667098999023],[39.35582733154297,-8.71694564819336],[39.45861053466797,-8.822500228881836],[39.45777130126953,-8.940834045410156],[39.644718170166016,-9.193612098693848],[39.64971923828125,-9.355626106262207],[39.826385498046875,-9.993057250976562],[39.972633361816406,-10.125556945800781],[40.238121032714844,-10.205279350280762],[40.5162467956543,-10.481945037841797],[40.60221862792969,-10.823751449584961],[40.50166320800781,-10.958056449890137],[40.56166076660156,-11.066389083862305],[40.38777160644531,-11.317779541015625],[40.476661682128906,-11.404097557067871],[40.424163818359375,-11.649723052978516],[40.50555419921875,-11.957223892211914],[40.5099983215332,-12.434028625488281],[40.64402389526367,-12.777361869812012],[40.513607025146484,-12.885001182556152],[40.59291076660156,-12.970694541931152],[40.53944396972656,-13.312223434448242],[40.539302825927734,-13.64041805267334],[40.649715423583984,-14.02166748046875],[40.598609924316406,-14.245834350585938],[40.83110809326172,-14.459444999694824],[40.84527587890625,-14.734167098999023],[40.72846603393555,-14.889028549194336],[40.77027130126953,-14.978334426879883],[40.63180160522461,-15.1577787399292],[40.68429946899414,-15.254861831665039],[40.578330993652344,-15.498889923095703],[40.12554931640625,-15.940000534057617],[40.097496032714844,-16.082918167114258],[39.976661682128906,-16.235557556152344],[39.78263473510742,-16.305557250976562],[39.81749725341797,-16.41278076171875],[39.6986083984375,-16.536945343017578],[39.12749481201172,-16.87042236328125],[39.0961799621582,-16.984376907348633],[38.68610382080078,-17.07083511352539],[38.249717712402344,-17.22944641113