{"index.html":"<html><head><script src=\"//ej2.syncfusion.com/javascript/demos/maps/osm-with-marker-clustering/datasource.js\" type=\"text/javascript\"></script>\n<script src=\"https://cdn.syncfusion.com/ej2/27.1.48/dist/ej2.min.js\" type=\"text/javascript\"></script>\n    <link href=\"https://cdn.syncfusion.com/ej2/27.1.48/material.css\" rel=\"stylesheet\">\n\n    <link href=\"https://maxcdn.bootstrapcdn.com/bootstrap/3.3.7/css/bootstrap.min.css\" rel=\"stylesheet\">\n\n    <style>\n            body{\n                touch-action:none;\n            }\n            .control-section{\n                margin-top:100px;\n            }\n        </style></head><body><div class=\"stackblitz-container {{theme}}\"><main>\n    <div class=\"control-section\">\n        <div id=\"container\"></div>      \n    </div>\n    \n    \n</main>\n</div></body></html>","index.js":"{{ripple}}\n    var maps = new ej.maps.Maps({\n        zoomSettings: {\n            enable: true,\n            zoomFactor: 2,\n            toolbarSettings: {\n                buttonSettings: {\n                    toolbarItems: ['Zoom', 'ZoomIn', 'ZoomOut', 'Pan', 'Reset']\n                }\n            }\n        },\n        load: function (args) {\n\n        },\n        titleSettings: {\n            textStyle: {\n                size: '16px'\n            },\n            text: 'Popular attractions around the world'\n        },\n        layers: [\n            {\n                urlTemplate: \"https://tile.openstreetmap.org/level/tileX/tileY.png\",\n                markerSettings: [\n                    {\n                        clusterSettings: {\n                            allowClustering: true,\n                            allowDeepClustering: false,\n                            allowClusterExpand: true,\n                            labelStyle: {\n                                color: 'white',\n                                size: '10px'\n                            },\n                            shape: 'Image',\n                            height: 40, width: 40,\n                            imageUrl: '//ej2.syncfusion.com/javascript/demos/src/maps/images/cluster-france.svg'\n                        },\n                        visible: true,\n                        dataSource: [\n                            { latitude: 48.8584, longitude: 2.2945, name: 'Eiffel Tower', state: 'Paris', country: 'France' },\n                            { latitude: 48.8606, longitude: 2.3376, name: 'Louvre Museum', state: 'Paris', country: 'France' },\n                            { latitude: 48.8529, longitude: 2.3500, name: 'Notre-Dame Cathedral', state: 'Paris', country: 'France' },\n                            { latitude: 48.6360, longitude: 1.5115, name: 'Mont Saint-Michel', state: 'Normandy', country: 'France' },\n                            { latitude: 48.8049, longitude: 2.1204, name: 'Versailles', state: 'Normandy', country: 'France' },\n                            { latitude: 43.7102, longitude: 7.2620, name: 'French Riviera', state: 'Provence-Alpes-Côte d Azur', country: 'France' },\n                            { latitude: 47.6167, longitude: 1.5167, name: 'Château de Chambord', state: 'Centre-Val de Loire', country: 'France' },\n                            { latitude: 48.8738, longitude: 2.2950, name: 'Arc de Triomphe', state: 'Paris', country: 'France' },\n                            { latitude: 48.8566, longitude: 2.3522, name: 'Sainte-Chapelle', state: 'Paris', country: 'France' },\n                            { latitude: 49.4144, longitude: 0.8322, name: 'The D-Day Landing Beaches', state: 'Normandy', country: 'France' }\n                        ],\n                        shape: 'Circle',\n                        height: 15,\n                        width: 15,\n                        fill: '#b38600',\n                        border: {\n                            color: '#e6f2ff',\n                            width: 2\n                        },\n                        tooltipSettings: {\n                            visible: true,\n                            valuePath: 'name',\n                            format: '<b>Name:</b> ${name} <br/> <b>State:</b> ${state} <br/> <b>Country:</b> ${country}'\n                        },\n                        animationDuration: 0\n                    },\n                    {\n                        clusterSettings: {\n                            allowClustering: true,\n                            allowDeepClustering: false,\n                            allowClusterExpand: true,\n                            shape: 'Image',\n                            height: 40, width: 40,\n                            labelStyle: {\n                                color: 'white',\n                                size: '10px'\n                            },\n                            imageUrl: '//ej2.syncfusion.com/javascript/demos/src/maps/images/cluster-usa.svg'\n                        },\n                        visible: true,\n                        shape: 'Circle',\n                        height: 15,\n                        width: 15,\n                        fill: '#bf4040',\n                        border: {\n                            color: '#e6f2ff',\n                            width: 2\n                        },\n                        dataSource: [\n                            { latitude: 35.019028, longitude: -85.339439, name: 'Ruby Falls', state: 'Tennessee', country: 'United States of America' },\n                            { latitude: 35.654613, longitude: -105.996979, name: 'Meow Wolf Santa Fe', state: 'New Mexico', country: 'United States of America' },\n                            { latitude: 36.107216, longitude: -115.175804, name: 'City Center of Las Vegas', state: 'Nevada', country: 'United States of America' },\n                            { latitude: 36.879047, longitude: -111.510498, name: 'Horseshoe Bend', state: 'Arizona', country: 'United States of America' },\n                            { latitude: 36.011955, longitude: -113.810951, name: 'Grand Canyon West Skywalk', state: 'Arizona', country: 'United States of America' },\n                            { latitude: 44.460438, longitude: -110.828377, name: 'Old Faithful', state: 'Wyoming', country: 'United States of America' },\n                            { latitude: 33.839165, longitude: -118.391113, name: 'Redondo Beach Pier', state: 'California', country: 'United States of America' },\n                            { latitude: 36.117615, longitude: -115.168381, name: 'High Roller, Las Vegas', state: 'Nevada', country: 'United States of America' },\n                            { latitude: 36.082027, longitude: -115.172897, name: 'Welcome to Fabulous Las Vegas Sign', state: 'Nevada', country: 'United States of America' },\n                            { latitude: 28.521894, longitude: -80.681702, name: 'Kennedy Space Center Visitor Complex', state: 'Florida', country: 'United States of America' }\n                        ],\n                        tooltipSettings: {\n                            visible: true,\n                            valuePath: 'name',\n                            format: '<b>Name:</b> ${name} <br/> <b>State:</b> ${state} <br/> <b>Country:</b> ${country}'\n                        },\n                        animationDuration: 0\n                    },\n                    {\n                        clusterSettings: {\n                            allowDeepClustering: false,\n                            allowClusterExpand: true,\n                            allowClustering: true,\n                            shape: 'Image',\n                            height: 40, width: 40,\n                            labelStyle: {\n                                size: '10px',\n                                color: 'white'\n                            },\n                            imageUrl: '//ej2.syncfusion.com/javascript/demos/src/maps/images/cluster-india.svg'\n                        },\n                        dataSource: [\n                            { latitude: 26.985901, longitude: 75.850700, name: 'Amber Fort, Amer', state: 'Rajastan', country: 'India' },\n                            { latitude: 22.957390, longitude: 77.625275, name: 'Bhimbetka, Raisen District', state: 'Madhya Pradesh', country: 'India' },\n                            { latitude: 26.809330, longitude: 75.540527, name: 'Bagru Fort, Bagru', state: 'Rajasthan', country: 'India' },\n                            { latitude: 25.489504, longitude: 80.330116, name: 'Kalinjar Fort, Banda', state: 'Uttar Pradesh', country: 'India' },\n                            { latitude: 27.988890, longitude: 76.388336, name: 'Neemrana', state: 'Rajasthan', country: 'India' },\n                            { latitude: 17.382330, longitude: 78.401604, name: 'Golconda Fort', state: 'Hyderabad', country: 'India' },\n                            { latitude: 28.657211, longitude: 77.233978, name: 'Bhagirath Palace', state: 'New Delhi', country: 'India' },\n                            { latitude: 18.544689, longitude: 73.825478, name: 'Raj Bhavan', state: 'Maharashtra', country: 'India' },\n                            { latitude: 22.718435, longitude: 75.855217, name: 'Rajwada, Indore', state: 'Madhya Pradesh', country: 'India' },\n                            { latitude: 27.173891, longitude: 78.042068, name: 'The Taj Mahal', state: 'Uttar Pradesh', country: 'India' }\n                        ],\n                        visible: true,\n                        shape: 'Circle',\n                        fill: '#00b3b3',\n                        border: {\n                            color: '#e6f2ff',\n                            width: 2\n                        },\n                        height: 15,\n                        width: 15,\n                        tooltipSettings: {\n                            visible: true,\n                            format: '<b>Name:</b> ${name} <br/> <b>State:</b> ${state} <br/> <b>Country:</b> ${country}',\n                            valuePath: 'name'\n                        },\n                        animationDuration: 0\n                    },\n                    {\n                        visible: true,\n                        dataSource: [\n                            { latitude: 40.4319, longitude: 116.5704, name: 'Great Wall of China', state: 'Beijing', country: 'China' },\n                            { latitude: 39.9163, longitude: 116.3972, name: 'Forbidden City', state: 'Beijing', country: 'China' },\n                            { latitude: 34.3848, longitude: 109.2734, name: 'Terracotta Army', state: 'Shaanxi Province', country: 'China' },\n                            { latitude: 39.8825, longitude: 116.4122, name: 'Temple of Heaven', state: 'Beijing', country: 'China' },\n                            { latitude: 39.9990, longitude: 116.2754, name: 'Summer Palace', state: 'Beijing', country: 'China' },\n                            { latitude: 30.2470, longitude: 120.1614, name: 'Hangzhou', state: 'Zhejiang Province', country: 'China' },\n                            { latitude: 31.2400, longitude: 121.4900, name: 'Shanghai Tower', state: 'Shanghai', country: 'China' }\n                        ],\n                        shape: 'Circle',\n                        fill: '#b366ff',\n                        border: {\n                            color: '#e6f2ff',\n                            width: 2\n                        },\n                        height: 15,\n                        width: 15,\n                        tooltipSettings: {\n                            format: '<b>Name:</b> ${name} <br/> <b>State:</b> ${state} <br/> <b>Country:</b> ${country}',\n                            visible: true,\n                            valuePath: 'name'\n                        },\n                        clusterSettings: {\n                            allowClustering: true,\n                            allowClusterExpand: true,\n                            allowDeepClustering: false,\n                            shape: 'Image',\n                            labelStyle: {\n                                color: 'white',\n                                size: '10px'\n                            },\n                            height: 40, width: 40,\n                            imageUrl: '//ej2.syncfusion.com/javascript/demos/src/maps/images/cluster-china.svg'\n                        },\n                        animationDuration: 0\n                    }\n                ]\n            }\n        ]\n    });\n    maps.appendTo('#container');\n\n"}